{
  "type": "FeatureCollection",
  "features": [
    {
      "type": "Feature",
      "geometry": {
        "type": "Point",
        "coordinates": [
          -93.2636,
          44.98
        ]
      },
      "properties": {
        "id": 0,
        "name": "Minneapolis",
        "transactions": 1034,
        "revenue": 50344.96,
        "avg_transaction": 48.69,
        "weight": 6.75
      }
    },
    {
      "type": "Feature",
      "geometry": {
        "type": "Point",
        "coordinates": [
          -93.0931,
          44.9444
        ]
      },
      "properties": {
        "id": 1,
        "name": "Saint Paul",
        "transactions": 576,
        "revenue": 30877.14,
        "avg_transaction": 53.61,
        "weight": 5.982
      }
    },
    {
      "type": "Feature",
      "geometry": {
        "type": "Point",
        "coordinates": [
          -93.4553,
          45.0106
        ]
      },
      "properties": {
        "id": 2,
        "name": "Plymouth",
        "transactions": 46,
        "revenue": 2405.27,
        "avg_transaction": 52.29,
        "weight": 3.7313
      }
    },
    {
      "type": "Feature",
      "geometry": {
        "type": "Point",
        "coordinates": [
          -93.4706,
          44.8547
        ]
      },
      "properties": {
        "id": 3,
        "name": "Eden Prairie",
        "transactions": 36,
        "revenue": 2039.61,
        "avg_transaction": 56.66,
        "weight": 3.7238
      }
    },
    {
      "type": "Feature",
      "geometry": {
        "type": "Point",
        "coordinates": [
          -93.2425,
          44.6497
        ]
      },
      "properties": {
        "id": 4,
        "name": "Lakeville",
        "transactions": 26,
        "revenue": 1587.98,
        "avg_transaction": 61.08,
        "weight": 3.4685
      }
    },
    {
      "type": "Feature",
      "geometry": {
        "type": "Point",
        "coordinates": [
          -93.4625,
          44.925
        ]
      },
      "properties": {
        "id": 5,
        "name": "Hopkins",
        "transactions": 24,
        "revenue": 1429.17,
        "avg_transaction": 59.55,
        "weight": 3.4615
      }
    },
    {
      "type": "Feature",
      "geometry": {
        "type": "Point",
        "coordinates": [
          -92.7567,
          44.9747
        ]
      },
      "properties": {
        "id": 6,
        "name": "Hudson",
        "transactions": 25,
        "revenue": 1291.17,
        "avg_transaction": 51.65,
        "weight": 3.2078
      }
    },
    {
      "type": "Feature",
      "geometry": {
        "type": "Point",
        "coordinates": [
          -93.4556,
          45.0725
        ]
      },
      "properties": {
        "id": 7,
        "name": "Maple Grove",
        "transactions": 35,
        "revenue": 1123.65,
        "avg_transaction": 32.1,
        "weight": 3.2013
      }
    },
    {
      "type": "Feature",
      "geometry": {
        "type": "Point",
        "coordinates": [
          -93.5267,
          44.7981
        ]
      },
      "properties": {
        "id": 8,
        "name": "Shakopee",
        "transactions": 22,
        "revenue": 837.36,
        "avg_transaction": 38.06,
        "weight": 3.1915
      }
    },
    {
      "type": "Feature",
      "geometry": {
        "type": "Point",
        "coordinates": [
          -93.6658,
          44.9367
        ]
      },
      "properties": {
        "id": 9,
        "name": "Mound",
        "transactions": 9,
        "revenue": 789.98,
        "avg_transaction": 87.78,
        "weight": 3.185
      }
    },
    {
      "type": "Feature",
      "geometry": {
        "type": "Point",
        "coordinates": [
          -93.2775,
          44.7678
        ]
      },
      "properties": {
        "id": 10,
        "name": "Burnsville",
        "transactions": 19,
        "revenue": 735.16,
        "avg_transaction": 38.69,
        "weight": 3.1785
      }
    },
    {
      "type": "Feature",
      "geometry": {
        "type": "Point",
        "coordinates": [
          -93.5661,
          44.9033
        ]
      },
      "properties": {
        "id": 11,
        "name": "Excelsior",
        "transactions": 10,
        "revenue": 693.38,
        "avg_transaction": 69.34,
        "weight": 3.172
      }
    },
    {
      "type": "Feature",
      "geometry": {
        "type": "Point",
        "coordinates": [
          -92.8058,
          45.0564
        ]
      },
      "properties": {
        "id": 12,
        "name": "Stillwater",
        "transactions": 18,
        "revenue": 654.89,
        "avg_transaction": 36.38,
        "weight": 2.922
      }
    },
    {
      "type": "Feature",
      "geometry": {
        "type": "Point",
        "coordinates": [
          -93.5031,
          44.9133
        ]
      },
      "properties": {
        "id": 13,
        "name": "Minnetonka",
        "transactions": 16,
        "revenue": 627.98,
        "avg_transaction": 39.25,
        "weight": 2.916
      }
    },
    {
      "type": "Feature",
      "geometry": {
        "type": "Point",
        "coordinates": [
          -93.5669,
          45.3039
        ]
      },
      "properties": {
        "id": 14,
        "name": "Elk River",
        "transactions": 12,
        "revenue": 614.85,
        "avg_transaction": 51.24,
        "weight": 2.91
      }
    },
    {
      "type": "Feature",
      "geometry": {
        "type": "Point",
        "coordinates": [
          -93.8744,
          45.1719
        ]
      },
      "properties": {
        "id": 15,
        "name": "Buffalo",
        "transactions": 8,
        "revenue": 566.35,
        "avg_transaction": 70.79,
        "weight": 2.901
      }
    },
    {
      "type": "Feature",
      "geometry": {
        "type": "Point",
        "coordinates": [
          -93.6019,
          44.7894
        ]
      },
      "properties": {
        "id": 16,
        "name": "Chaska",
        "transactions": 12,
        "revenue": 510.36,
        "avg_transaction": 42.53,
        "weight": 2.895
      }
    },
    {
      "type": "Feature",
      "geometry": {
        "type": "Point",
        "coordinates": [
          -93.7939,
          45.3056
        ]
      },
      "properties": {
        "id": 17,
        "name": "Monticello",
        "transactions": 4,
        "revenue": 485.9,
        "avg_transaction": 121.48,
        "weight": 2.6483
      }
    },
    {
      "type": "Feature",
      "geometry": {
        "type": "Point",
        "coordinates": [
          -92.9436,
          44.8278
        ]
      },
      "properties": {
        "id": 18,
        "name": "Cottage Grove",
        "transactions": 10,
        "revenue": 459.35,
        "avg_transaction": 45.94,
        "weight": 2.6428
      }
    },
    {
      "type": "Feature",
      "geometry": {
        "type": "Point",
        "coordinates": [
          -93.1256,
          44.7394
        ]
      },
      "properties": {
        "id": 19,
        "name": "Rosemount",
        "transactions": 9,
        "revenue": 431.28,
        "avg_transaction": 47.92,
        "weight": 2.6373
      }
    },
    {
      "type": "Feature",
      "geometry": {
        "type": "Point",
        "coordinates": [
          -93.0931,
          44.9444
        ]
      },
      "properties": {
        "id": 20,
        "name": "South Saint Paul",
        "transactions": 6,
        "revenue": 312.89,
        "avg_transaction": 52.15,
        "weight": 2.6318
      }
    },
    {
      "type": "Feature",
      "geometry": {
        "type": "Point",
        "coordinates": [
          -93.5064,
          44.9742
        ]
      },
      "properties": {
        "id": 21,
        "name": "Wayzata",
        "transactions": 5,
        "revenue": 282.74,
        "avg_transaction": 56.55,
        "weight": 2.6263
      }
    },
    {
      "type": "Feature",
      "geometry": {
        "type": "Point",
        "coordinates": [
          -93.9986,
          45.445
        ]
      },
      "properties": {
        "id": 22,
        "name": "Clear Lake",
        "transactions": 1,
        "revenue": 259.9,
        "avg_transaction": 259.9,
        "weight": 2.6125
      }
    },
    {
      "type": "Feature",
      "geometry": {
        "type": "Point",
        "coordinates": [
          -92.2711,
          45.2519
        ]
      },
      "properties": {
        "id": 23,
        "name": "Clear Lake",
        "transactions": 1,
        "revenue": 259.9,
        "avg_transaction": 259.9,
        "weight": 2.6125
      }
    },
    {
      "type": "Feature",
      "geometry": {
        "type": "Point",
        "coordinates": [
          -93.3972,
          45.1889
        ]
      },
      "properties": {
        "id": 24,
        "name": "Champlin",
        "transactions": 7,
        "revenue": 236.86,
        "avg_transaction": 33.84,
        "weight": 2.37
      }
    },
    {
      "type": "Feature",
      "geometry": {
        "type": "Point",
        "coordinates": [
          -93.7867,
          44.8508
        ]
      },
      "properties": {
        "id": 25,
        "name": "Waconia",
        "transactions": 5,
        "revenue": 235.94,
        "avg_transaction": 47.19,
        "weight": 2.365
      }
    },
    {
      "type": "Feature",
      "geometry": {
        "type": "Point",
        "coordinates": [
          -93.8767,
          45.3933
        ]
      },
      "properties": {
        "id": 26,
        "name": "Becker",
        "transactions": 2,
        "revenue": 227.45,
        "avg_transaction": 113.73,
        "weight": 2.36
      }
    },
    {
      "type": "Feature",
      "geometry": {
        "type": "Point",
        "coordinates": [
          -93.1514,
          45.1486
        ]
      },
      "properties": {
        "id": 27,
        "name": "Circle Pines",
        "transactions": 3,
        "revenue": 221.94,
        "avg_transaction": 73.98,
        "weight": 2.355
      }
    },
    {
      "type": "Feature",
      "geometry": {
        "type": "Point",
        "coordinates": [
          -93.6647,
          45.21
        ]
      },
      "properties": {
        "id": 28,
        "name": "Saint Michael",
        "transactions": 4,
        "revenue": 214.95,
        "avg_transaction": 53.74,
        "weight": 2.35
      }
    },
    {
      "type": "Feature",
      "geometry": {
        "type": "Point",
        "coordinates": [
          -93.5306,
          44.8622
        ]
      },
      "properties": {
        "id": 29,
        "name": "Chanhassen",
        "transactions": 8,
        "revenue": 201.97,
        "avg_transaction": 25.25,
        "weight": 2.1105
      }
    },
    {
      "type": "Feature",
      "geometry": {
        "type": "Point",
        "coordinates": [
          -93.5528,
          45.1889
        ]
      },
      "properties": {
        "id": 30,
        "name": "Rogers",
        "transactions": 2,
        "revenue": 201.93,
        "avg_transaction": 100.97,
        "weight": 2.1038
      }
    },
    {
      "type": "Feature",
      "geometry": {
        "type": "Point",
        "coordinates": [
          -93.3869,
          45.1978
        ]
      },
      "properties": {
        "id": 31,
        "name": "Anoka",
        "transactions": 8,
        "revenue": 201.44,
        "avg_transaction": 25.18,
        "weight": 2.0993
      }
    },
    {
      "type": "Feature",
      "geometry": {
        "type": "Point",
        "coordinates": [
          -94.1622,
          45.5608
        ]
      },
      "properties": {
        "id": 32,
        "name": "Saint Cloud",
        "transactions": 5,
        "revenue": 197.38,
        "avg_transaction": 39.48,
        "weight": 2.0948
      }
    },
    {
      "type": "Feature",
      "geometry": {
        "type": "Point",
        "coordinates": [
          -93.0425,
          44.8481
        ]
      },
      "properties": {
        "id": 33,
        "name": "Inver Grove Heights",
        "transactions": 6,
        "revenue": 187.45,
        "avg_transaction": 31.24,
        "weight": 2.0903
      }
    },
    {
      "type": "Feature",
      "geometry": {
        "type": "Point",
        "coordinates": [
          -92.8522,
          44.7433
        ]
      },
      "properties": {
        "id": 34,
        "name": "Hastings",
        "transactions": 4,
        "revenue": 184.93,
        "avg_transaction": 46.23,
        "weight": 1.854
      }
    },
    {
      "type": "Feature",
      "geometry": {
        "type": "Point",
        "coordinates": [
          -93.4225,
          44.7133
        ]
      },
      "properties": {
        "id": 35,
        "name": "Prior Lake",
        "transactions": 7,
        "revenue": 178.98,
        "avg_transaction": 25.57,
        "weight": 1.85
      }
    },
    {
      "type": "Feature",
      "geometry": {
        "type": "Point",
        "coordinates": [
          -93.7458,
          45.3325
        ]
      },
      "properties": {
        "id": 36,
        "name": "Big Lake",
        "transactions": 5,
        "revenue": 156.97,
        "avg_transaction": 31.39,
        "weight": 1.846
      }
    },
    {
      "type": "Feature",
      "geometry": {
        "type": "Point",
        "coordinates": [
          -93.1433,
          44.6403
        ]
      },
      "properties": {
        "id": 37,
        "name": "Farmington",
        "transactions": 11,
        "revenue": 115.96,
        "avg_transaction": 10.54,
        "weight": 1.84
      }
    },
    {
      "type": "Feature",
      "geometry": {
        "type": "Point",
        "coordinates": [
          -93.3361,
          44.7792
        ]
      },
      "properties": {
        "id": 38,
        "name": "Savage",
        "transactions": 2,
        "revenue": 111.98,
        "avg_transaction": 55.99,
        "weight": 1.836
      }
    },
    {
      "type": "Feature",
      "geometry": {
        "type": "Point",
        "coordinates": [
          -93.2911,
          45.2333
        ]
      },
      "properties": {
        "id": 39,
        "name": "Andover",
        "transactions": 5,
        "revenue": 108.97,
        "avg_transaction": 21.79,
        "weight": 1.832
      }
    },
    {
      "type": "Feature",
      "geometry": {
        "type": "Point",
        "coordinates": [
          -92.985,
          45.2789
        ]
      },
      "properties": {
        "id": 40,
        "name": "Forest Lake",
        "transactions": 4,
        "revenue": 97.98,
        "avg_transaction": 24.5,
        "weight": 1.5995
      }
    },
    {
      "type": "Feature",
      "geometry": {
        "type": "Point",
        "coordinates": [
          -93.6542,
          45.2378
        ]
      },
      "properties": {
        "id": 41,
        "name": "Albertville",
        "transactions": 3,
        "revenue": 97.45,
        "avg_transaction": 32.48,
        "weight": 1.596
      }
    },
    {
      "type": "Feature",
      "geometry": {
        "type": "Point",
        "coordinates": [
          -93.5714,
          44.9867
        ]
      },
      "properties": {
        "id": 42,
        "name": "Long Lake",
        "transactions": 2,
        "revenue": 83.97,
        "avg_transaction": 41.99,
        "weight": 1.5925
      }
    },
    {
      "type": "Feature",
      "geometry": {
        "type": "Point",
        "coordinates": [
          -92.9931,
          45.16
        ]
      },
      "properties": {
        "id": 43,
        "name": "Hugo",
        "transactions": 2,
        "revenue": 80,
        "avg_transaction": 40,
        "weight": 1.589
      }
    },
    {
      "type": "Feature",
      "geometry": {
        "type": "Point",
        "coordinates": [
          -92.6733,
          45.1244
        ]
      },
      "properties": {
        "id": 44,
        "name": "Somerset",
        "transactions": 2,
        "revenue": 69.98,
        "avg_transaction": 34.99,
        "weight": 1.5838
      }
    },
    {
      "type": "Feature",
      "geometry": {
        "type": "Point",
        "coordinates": [
          -92.3742,
          44.9667
        ]
      },
      "properties": {
        "id": 45,
        "name": "Baldwin",
        "transactions": 2,
        "revenue": 61.96,
        "avg_transaction": 30.98,
        "weight": 1.3545
      }
    },
    {
      "type": "Feature",
      "geometry": {
        "type": "Point",
        "coordinates": [
          -92.9538842,
          45.5085829
        ]
      },
      "properties": {
        "id": 46,
        "name": "North Branch",
        "transactions": 1,
        "revenue": 56,
        "avg_transaction": 56,
        "weight": 1.3515
      }
    },
    {
      "type": "Feature",
      "geometry": {
        "type": "Point",
        "coordinates": [
          -92.9872,
          45.3981
        ]
      },
      "properties": {
        "id": 47,
        "name": "Stacy",
        "transactions": 1,
        "revenue": 55.98,
        "avg_transaction": 55.98,
        "weight": 1.3485
      }
    },
    {
      "type": "Feature",
      "geometry": {
        "type": "Point",
        "coordinates": [
          -94.0017,
          45.2292
        ]
      },
      "properties": {
        "id": 48,
        "name": "Maple Lake",
        "transactions": 2,
        "revenue": 30.98,
        "avg_transaction": 15.49,
        "weight": 1.3455
      }
    },
    {
      "type": "Feature",
      "geometry": {
        "type": "Point",
        "coordinates": [
          -92.5364,
          45.1231
        ]
      },
      "properties": {
        "id": 49,
        "name": "New Richmond",
        "transactions": 1,
        "revenue": 28.99,
        "avg_transaction": 28.99,
        "weight": 1.3425
      }
    },
    {
      "type": "Feature",
      "geometry": {
        "type": "Point",
        "coordinates": [
          -93.9214,
          44.7736
        ]
      },
      "properties": {
        "id": 50,
        "name": "Norwood Young America",
        "transactions": 1,
        "revenue": 26.99,
        "avg_transaction": 26.99,
        "weight": 1.3395
      }
    },
    {
      "type": "Feature",
      "geometry": {
        "type": "Point",
        "coordinates": [
          -94.1242,
          45.2628
        ]
      },
      "properties": {
        "id": 51,
        "name": "Annandale",
        "transactions": 2,
        "revenue": 20,
        "avg_transaction": 10,
        "weight": 1.1138
      }
    },
    {
      "type": "Feature",
      "geometry": {
        "type": "Point",
        "coordinates": [
          -93.7811,
          44.7717
        ]
      },
      "properties": {
        "id": 52,
        "name": "Cologne",
        "transactions": 1,
        "revenue": 10,
        "avg_transaction": 10,
        "weight": 1.11
      }
    },
    {
      "type": "Feature",
      "geometry": {
        "type": "Point",
        "coordinates": [
          -92.9969,
          45.3364
        ]
      },
      "properties": {
        "id": 53,
        "name": "Wyoming",
        "transactions": 1,
        "revenue": 5,
        "avg_transaction": 5,
        "weight": 1.1075
      }
    },
    {
      "type": "Feature",
      "geometry": {
        "type": "Point",
        "coordinates": [
          -93.6353,
          45.0547
        ]
      },
      "properties": {
        "id": 54,
        "name": "Loretto",
        "transactions": 3,
        "revenue": 0,
        "avg_transaction": 0,
        "weight": 0
      }
    },
    {
      "type": "Feature",
      "geometry": {
        "type": "Point",
        "coordinates": [
          -92.9653,
          45.6856
        ]
      },
      "properties": {
        "id": 55,
        "name": "Rush name",
        "transactions": 1,
        "revenue": 0,
        "avg_transaction": 0,
        "weight": 0
      }
    },
    {
      "type": "Feature",
      "geometry": {
        "type": "Point",
        "coordinates": [
          -92.8897,
          45.3736
        ]
      },
      "properties": {
        "id": 56,
        "name": "Chisago name",
        "transactions": 1,
        "revenue": 0,
        "avg_transaction": 0,
        "weight": 0
      }
    }
  ]
}