[
  {
    "city": "Minneapolis",
    "region": "MN",
    "lat": 44.98,
    "lng": -93.2636,
    "transactions": 1034,
    "revenue": 50344.96,
    "avg_transaction": 48.69,
    "weight": 8
  },
  {
    "city": "Saint Paul",
    "region": "MN",
    "lat": 44.9444,
    "lng": -93.0931,
    "transactions": 576,
    "revenue": 30877.14,
    "avg_transaction": 53.61,
    "weight": 5.982
  },
  {
    "city": "Plymouth",
    "region": "MN",
    "lat": 45.0106,
    "lng": -93.4553,
    "transactions": 46,
    "revenue": 2405.27,
    "avg_transaction": 52.29,
    "weight": 3.7313
  },
  {
    "city": "Eden Prairie",
    "region": "MN",
    "lat": 44.8547,
    "lng": -93.4706,
    "transactions": 36,
    "revenue": 2039.61,
    "avg_transaction": 56.66,
    "weight": 3.7238
  },
  {
    "city": "Lakeville",
    "region": "MN",
    "lat": 44.6497,
    "lng": -93.2425,
    "transactions": 26,
    "revenue": 1587.98,
    "avg_transaction": 61.08,
    "weight": 3.4685
  },
  {
    "city": "Hopkins",
    "region": "MN",
    "lat": 44.925,
    "lng": -93.4625,
    "transactions": 24,
    "revenue": 1429.17,
    "avg_transaction": 59.55,
    "weight": 3.4615
  },
  {
    "city": "Hudson",
    "region": "WI",
    "lat": 44.9747,
    "lng": -92.7567,
    "transactions": 25,
    "revenue": 1291.17,
    "avg_transaction": 51.65,
    "weight": 3.2078
  },
  {
    "city": "Maple Grove",
    "region": "MN",
    "lat": 45.0725,
    "lng": -93.4556,
    "transactions": 35,
    "revenue": 1123.65,
    "avg_transaction": 32.1,
    "weight": 3.2013
  },
  {
    "city": "Shakopee",
    "region": "MN",
    "lat": 44.7981,
    "lng": -93.5267,
    "transactions": 22,
    "revenue": 837.36,
    "avg_transaction": 38.06,
    "weight": 3.1915
  },
  {
    "city": "Mound",
    "region": "MN",
    "lat": 44.9367,
    "lng": -93.6658,
    "transactions": 9,
    "revenue": 789.98,
    "avg_transaction": 87.78,
    "weight": 3.185
  },
  {
    "city": "Burnsville",
    "region": "MN",
    "lat": 44.7678,
    "lng": -93.2775,
    "transactions": 19,
    "revenue": 735.16,
    "avg_transaction": 38.69,
    "weight": 3.1785
  },
  {
    "city": "Excelsior",
    "region": "MN",
    "lat": 44.9033,
    "lng": -93.5661,
    "transactions": 10,
    "revenue": 693.38,
    "avg_transaction": 69.34,
    "weight": 3.172
  },
  {
    "city": "Stillwater",
    "region": "MN",
    "lat": 45.0564,
    "lng": -92.8058,
    "transactions": 18,
    "revenue": 654.89,
    "avg_transaction": 36.38,
    "weight": 2.922
  },
  {
    "city": "Minnetonka",
    "region": "MN",
    "lat": 44.9133,
    "lng": -93.5031,
    "transactions": 16,
    "revenue": 627.98,
    "avg_transaction": 39.25,
    "weight": 2.916
  },
  {
    "city": "Elk River",
    "region": "MN",
    "lat": 45.3039,
    "lng": -93.5669,
    "transactions": 12,
    "revenue": 614.85,
    "avg_transaction": 51.24,
    "weight": 2.91
  },
  {
    "city": "Buffalo",
    "region": "MN",
    "lat": 45.1719,
    "lng": -93.8744,
    "transactions": 8,
    "revenue": 566.35,
    "avg_transaction": 70.79,
    "weight": 2.901
  },
  {
    "city": "Chaska",
    "region": "MN",
    "lat": 44.7894,
    "lng": -93.6019,
    "transactions": 12,
    "revenue": 510.36,
    "avg_transaction": 42.53,
    "weight": 2.895
  },
  {
    "city": "Monticello",
    "region": "MN",
    "lat": 45.3056,
    "lng": -93.7939,
    "transactions": 4,
    "revenue": 485.9,
    "avg_transaction": 121.48,
    "weight": 2.6483
  },
  {
    "city": "Cottage Grove",
    "region": "MN",
    "lat": 44.8278,
    "lng": -92.9436,
    "transactions": 10,
    "revenue": 459.35,
    "avg_transaction": 45.94,
    "weight": 2.6428
  },
  {
    "city": "Rosemount",
    "region": "MN",
    "lat": 44.7394,
    "lng": -93.1256,
    "transactions": 9,
    "revenue": 431.28,
    "avg_transaction": 47.92,
    "weight": 2.6373
  },
  {
    "city": "South Saint Paul",
    "region": "MN",
    "lat": 44.9444,
    "lng": -93.0931,
    "transactions": 6,
    "revenue": 312.89,
    "avg_transaction": 52.15,
    "weight": 2.6318
  },
  {
    "city": "Wayzata",
    "region": "MN",
    "lat": 44.9742,
    "lng": -93.5064,
    "transactions": 5,
    "revenue": 282.74,
    "avg_transaction": 56.55,
    "weight": 2.6263
  },
  {
    "city": "Clear Lake",
    "region": "MN",
    "lat": 45.445,
    "lng": -93.9986,
    "transactions": 1,
    "revenue": 259.9,
    "avg_transaction": 259.9,
    "weight": 2.6125
  },
  {
    "city": "Clear Lake",
    "region": "WI",
    "lat": 45.2519,
    "lng": -92.2711,
    "transactions": 1,
    "revenue": 259.9,
    "avg_transaction": 259.9,
    "weight": 2.6125
  },
  {
    "city": "Champlin",
    "region": "MN",
    "lat": 45.1889,
    "lng": -93.3972,
    "transactions": 7,
    "revenue": 236.86,
    "avg_transaction": 33.84,
    "weight": 2.37
  },
  {
    "city": "Waconia",
    "region": "MN",
    "lat": 44.8508,
    "lng": -93.7867,
    "transactions": 5,
    "revenue": 235.94,
    "avg_transaction": 47.19,
    "weight": 2.365
  },
  {
    "city": "Becker",
    "region": "MN",
    "lat": 45.3933,
    "lng": -93.8767,
    "transactions": 2,
    "revenue": 227.45,
    "avg_transaction": 113.73,
    "weight": 2.36
  },
  {
    "city": "Circle Pines",
    "region": "MN",
    "lat": 45.1486,
    "lng": -93.1514,
    "transactions": 3,
    "revenue": 221.94,
    "avg_transaction": 73.98,
    "weight": 2.355
  },
  {
    "city": "Saint Michael",
    "region": "MN",
    "lat": 45.21,
    "lng": -93.6647,
    "transactions": 4,
    "revenue": 214.95,
    "avg_transaction": 53.74,
    "weight": 2.35
  },
  {
    "city": "Chanhassen",
    "region": "MN",
    "lat": 44.8622,
    "lng": -93.5306,
    "transactions": 8,
    "revenue": 201.97,
    "avg_transaction": 25.25,
    "weight": 2.1105
  },
  {
    "city": "Rogers",
    "region": "MN",
    "lat": 45.1889,
    "lng": -93.5528,
    "transactions": 2,
    "revenue": 201.93,
    "avg_transaction": 100.97,
    "weight": 2.1038
  },
  {
    "city": "Anoka",
    "region": "MN",
    "lat": 45.1978,
    "lng": -93.3869,
    "transactions": 8,
    "revenue": 201.44,
    "avg_transaction": 25.18,
    "weight": 2.0993
  },
  {
    "city": "Saint Cloud",
    "region": "MN",
    "lat": 45.5608,
    "lng": -94.1622,
    "transactions": 5,
    "revenue": 197.38,
    "avg_transaction": 39.48,
    "weight": 2.0948
  },
  {
    "city": "Inver Grove Heights",
    "region": "MN",
    "lat": 44.8481,
    "lng": -93.0425,
    "transactions": 6,
    "revenue": 187.45,
    "avg_transaction": 31.24,
    "weight": 2.0903
  },
  {
    "city": "Hastings",
    "region": "MN",
    "lat": 44.7433,
    "lng": -92.8522,
    "transactions": 4,
    "revenue": 184.93,
    "avg_transaction": 46.23,
    "weight": 1.854
  },
  {
    "city": "Prior Lake",
    "region": "MN",
    "lat": 44.7133,
    "lng": -93.4225,
    "transactions": 7,
    "revenue": 178.98,
    "avg_transaction": 25.57,
    "weight": 1.85
  },
  {
    "city": "Big Lake",
    "region": "MN",
    "lat": 45.3325,
    "lng": -93.7458,
    "transactions": 5,
    "revenue": 156.97,
    "avg_transaction": 31.39,
    "weight": 1.846
  },
  {
    "city": "Farmington",
    "region": "MN",
    "lat": 44.6403,
    "lng": -93.1433,
    "transactions": 11,
    "revenue": 115.96,
    "avg_transaction": 10.54,
    "weight": 1.84
  },
  {
    "city": "Savage",
    "region": "MN",
    "lat": 44.7792,
    "lng": -93.3361,
    "transactions": 2,
    "revenue": 111.98,
    "avg_transaction": 55.99,
    "weight": 1.836
  },
  {
    "city": "Andover",
    "region": "MN",
    "lat": 45.2333,
    "lng": -93.2911,
    "transactions": 5,
    "revenue": 108.97,
    "avg_transaction": 21.79,
    "weight": 1.832
  },
  {
    "city": "Forest Lake",
    "region": "MN",
    "lat": 45.2789,
    "lng": -92.985,
    "transactions": 4,
    "revenue": 97.98,
    "avg_transaction": 24.5,
    "weight": 1.5995
  },
  {
    "city": "Albertville",
    "region": "MN",
    "lat": 45.2378,
    "lng": -93.6542,
    "transactions": 3,
    "revenue": 97.45,
    "avg_transaction": 32.48,
    "weight": 1.596
  },
  {
    "city": "Long Lake",
    "region": "MN",
    "lat": 44.9867,
    "lng": -93.5714,
    "transactions": 2,
    "revenue": 83.97,
    "avg_transaction": 41.99,
    "weight": 1.5925
  },
  {
    "city": "Hugo",
    "region": "MN",
    "lat": 45.16,
    "lng": -92.9931,
    "transactions": 2,
    "revenue": 80,
    "avg_transaction": 40,
    "weight": 1.589
  },
  {
    "city": "Somerset",
    "region": "WI",
    "lat": 45.1244,
    "lng": -92.6733,
    "transactions": 2,
    "revenue": 69.98,
    "avg_transaction": 34.99,
    "weight": 1.5838
  },
  {
    "city": "Baldwin",
    "region": "WI",
    "lat": 44.9667,
    "lng": -92.3742,
    "transactions": 2,
    "revenue": 61.96,
    "avg_transaction": 30.98,
    "weight": 1.3545
  },
  {
    "city": "North Branch",
    "region": "MN",
    "lat": 45.5085829,
    "lng": -92.9538842,
    "transactions": 1,
    "revenue": 56,
    "avg_transaction": 56,
    "weight": 1.3515
  },
  {
    "city": "Stacy",
    "region": "MN",
    "lat": 45.3981,
    "lng": -92.9872,
    "transactions": 1,
    "revenue": 55.98,
    "avg_transaction": 55.98,
    "weight": 1.3485
  },
  {
    "city": "Maple Lake",
    "region": "MN",
    "lat": 45.2292,
    "lng": -94.0017,
    "transactions": 2,
    "revenue": 30.98,
    "avg_transaction": 15.49,
    "weight": 1.3455
  },
  {
    "city": "New Richmond",
    "region": "WI",
    "lat": 45.1231,
    "lng": -92.5364,
    "transactions": 1,
    "revenue": 28.99,
    "avg_transaction": 28.99,
    "weight": 1.3425
  },
  {
    "city": "Norwood Young America",
    "region": "MN",
    "lat": 44.7736,
    "lng": -93.9214,
    "transactions": 1,
    "revenue": 26.99,
    "avg_transaction": 26.99,
    "weight": 1.3395
  },
  {
    "city": "Annandale",
    "region": "MN",
    "lat": 45.2628,
    "lng": -94.1242,
    "transactions": 2,
    "revenue": 20,
    "avg_transaction": 10,
    "weight": 1.1138
  },
  {
    "city": "Cologne",
    "region": "MN",
    "lat": 44.7717,
    "lng": -93.7811,
    "transactions": 1,
    "revenue": 10,
    "avg_transaction": 10,
    "weight": 1.11
  },
  {
    "city": "Wyoming",
    "region": "MN",
    "lat": 45.3364,
    "lng": -92.9969,
    "transactions": 1,
    "revenue": 5,
    "avg_transaction": 5,
    "weight": 1.1075
  },
  {
    "city": "Loretto",
    "region": "MN",
    "lat": 45.0547,
    "lng": -93.6353,
    "transactions": 3,
    "revenue": 0,
    "avg_transaction": 0,
    "weight": 0
  },
  {
    "city": "Rush City",
    "region": "MN",
    "lat": 45.6856,
    "lng": -92.9653,
    "transactions": 1,
    "revenue": 0,
    "avg_transaction": 0,
    "weight": 0
  },
  {
    "city": "Chisago City",
    "region": "MN",
    "lat": 45.3736,
    "lng": -92.8897,
    "transactions": 1,
    "revenue": 0,
    "avg_transaction": 0,
    "weight": 0
  },
  {
    "city": "Cedar",
    "region": "MN",
    "lat": 45.3197,
    "lng": -93.2858,
    "transactions": 0,
    "revenue": 0,
    "avg_transaction": "N/A",
    "weight": 0
  },
  {
    "city": "Delano",
    "region": "MN",
    "lat": 45.0419,
    "lng": -93.7889,
    "transactions": 0,
    "revenue": 0,
    "avg_transaction": "N/A",
    "weight": 0
  },
  {
    "city": "Zimmerman",
    "region": "MN",
    "lat": 45.4648192,
    "lng": -93.6120288,
    "transactions": 0,
    "revenue": 0,
    "avg_transaction": "N/A",
    "weight": 0
  },
  {
    "city": "Carver",
    "region": "MN",
    "lat": 44.7636,
    "lng": -93.6256,
    "transactions": 0,
    "revenue": 0,
    "avg_transaction": "N/A",
    "weight": 0
  },
  {
    "city": "Jordan",
    "region": "MN",
    "lat": 44.6669,
    "lng": -93.6267,
    "transactions": 0,
    "revenue": 0,
    "avg_transaction": "N/A",
    "weight": 0
  },
  {
    "city": "Watertown",
    "region": "MN",
    "lat": 44.9636,
    "lng": -93.8469,
    "transactions": 0,
    "revenue": 0,
    "avg_transaction": "N/A",
    "weight": 0
  },
  {
    "city": "Belle Plaine",
    "region": "MN",
    "lat": 44.6228,
    "lng": -93.7683,
    "transactions": 0,
    "revenue": 0,
    "avg_transaction": "N/A",
    "weight": 0
  },
  {
    "city": "Cambridge",
    "region": "MN",
    "lat": 45.5728,
    "lng": -93.2242,
    "transactions": 0,
    "revenue": 0,
    "avg_transaction": "N/A",
    "weight": 0
  },
  {
    "city": "Hamel",
    "region": "MN",
    "lat": 45.0411,
    "lng": -93.5253,
    "transactions": 0,
    "revenue": 0,
    "avg_transaction": "N/A",
    "weight": 0
  },
  {
    "city": "Isanti",
    "region": "MN",
    "lat": 45.4903,
    "lng": -93.2475,
    "transactions": 0,
    "revenue": 0,
    "avg_transaction": "N/A",
    "weight": 0
  },
  {
    "city": "Lindstrom",
    "region": "MN",
    "lat": 45.3894,
    "lng": -92.8478,
    "transactions": 0,
    "revenue": 0,
    "avg_transaction": "N/A",
    "weight": 0
  },
  {
    "city": "Saint Francis",
    "region": "MN",
    "lat": 45.3869,
    "lng": -93.3592,
    "transactions": 0,
    "revenue": 0,
    "avg_transaction": "N/A",
    "weight": 0
  },
  {
    "city": "South Haven",
    "region": "MN",
    "lat": 45.3004199,
    "lng": -94.1990924,
    "transactions": 0,
    "revenue": 0,
    "avg_transaction": "N/A",
    "weight": 0
  },
  {
    "city": "Victoria",
    "region": "MN",
    "lat": 44.8586,
    "lng": -93.6614,
    "transactions": 0,
    "revenue": 0,
    "avg_transaction": "N/A",
    "weight": 0
  },
  {
    "city": "Afton",
    "region": "MN",
    "lat": 44.9028,
    "lng": -92.7833,
    "transactions": 0,
    "revenue": 0,
    "avg_transaction": "N/A",
    "weight": 0
  },
  {
    "city": "Bayport",
    "region": "MN",
    "lat": 45.0214,
    "lng": -92.7808,
    "transactions": 0,
    "revenue": 0,
    "avg_transaction": "N/A",
    "weight": 0
  },
  {
    "city": "Bethel",
    "region": "MN",
    "lat": 45.4039,
    "lng": -93.2675,
    "transactions": 0,
    "revenue": 0,
    "avg_transaction": "N/A",
    "weight": 0
  },
  {
    "city": "Braham",
    "region": "MN",
    "lat": 45.7228,
    "lng": -93.1706,
    "transactions": 0,
    "revenue": 0,
    "avg_transaction": "N/A",
    "weight": 0
  },
  {
    "city": "Center City",
    "region": "MN",
    "lat": 45.3939,
    "lng": -92.8164,
    "transactions": 0,
    "revenue": 0,
    "avg_transaction": "N/A",
    "weight": 0
  },
  {
    "city": "Cokato",
    "region": "MN",
    "lat": 45.0758,
    "lng": -94.1897,
    "transactions": 0,
    "revenue": 0,
    "avg_transaction": "N/A",
    "weight": 0
  },
  {
    "city": "Dayton",
    "region": "MN",
    "lat": 45.2439,
    "lng": -93.5147,
    "transactions": 0,
    "revenue": 0,
    "avg_transaction": "N/A",
    "weight": 0
  },
  {
    "city": "Elko",
    "region": "MN",
    "lat": 44.5647,
    "lng": -93.3267,
    "transactions": 0,
    "revenue": 0,
    "avg_transaction": "N/A",
    "weight": 0
  },
  {
    "city": "Hamburg",
    "region": "MN",
    "lat": 44.7333,
    "lng": -93.9669,
    "transactions": 0,
    "revenue": 0,
    "avg_transaction": "N/A",
    "weight": 0
  },
  {
    "city": "Hampton",
    "region": "MN",
    "lat": 44.6103,
    "lng": -93.0019,
    "transactions": 0,
    "revenue": 0,
    "avg_transaction": "N/A",
    "weight": 0
  },
  {
    "city": "Hanover",
    "region": "MN",
    "lat": 45.1558,
    "lng": -93.6661,
    "transactions": 0,
    "revenue": 0,
    "avg_transaction": "N/A",
    "weight": 0
  },
  {
    "city": "Harris",
    "region": "MN",
    "lat": 45.5864,
    "lng": -92.9744,
    "transactions": 0,
    "revenue": 0,
    "avg_transaction": "N/A",
    "weight": 0
  },
  {
    "city": "Howard Lake",
    "region": "MN",
    "lat": 45.0608,
    "lng": -94.0731,
    "transactions": 0,
    "revenue": 0,
    "avg_transaction": "N/A",
    "weight": 0
  },
  {
    "city": "Lake Elmo",
    "region": "MN",
    "lat": 44.9958,
    "lng": -92.8792,
    "transactions": 0,
    "revenue": 0,
    "avg_transaction": "N/A",
    "weight": 0
  },
  {
    "city": "Maple Plain",
    "region": "MN",
    "lat": 45.0072,
    "lng": -93.6556,
    "transactions": 0,
    "revenue": 0,
    "avg_transaction": "N/A",
    "weight": 0
  },
  {
    "city": "Mayer",
    "region": "MN",
    "lat": 44.885,
    "lng": -93.8875,
    "transactions": 0,
    "revenue": 0,
    "avg_transaction": "N/A",
    "weight": 0
  },
  {
    "city": "Montrose",
    "region": "MN",
    "lat": 45.065,
    "lng": -93.9108,
    "transactions": 0,
    "revenue": 0,
    "avg_transaction": "N/A",
    "weight": 0
  },
  {
    "city": "New Market",
    "region": "MN",
    "lat": 44.5731,
    "lng": -93.3533,
    "transactions": 0,
    "revenue": 0,
    "avg_transaction": "N/A",
    "weight": 0
  },
  {
    "city": "Newport",
    "region": "MN",
    "lat": 44.8664,
    "lng": -93.0003,
    "transactions": 0,
    "revenue": 0,
    "avg_transaction": "N/A",
    "weight": 0
  },
  {
    "city": "Rockford",
    "region": "MN",
    "lat": 45.0883,
    "lng": -93.7342,
    "transactions": 0,
    "revenue": 0,
    "avg_transaction": "N/A",
    "weight": 0
  },
  {
    "city": "Saint Bonifacius",
    "region": "MN",
    "lat": 44.9056,
    "lng": -93.7472,
    "transactions": 0,
    "revenue": 0,
    "avg_transaction": "N/A",
    "weight": 0
  },
  {
    "city": "Saint Paul Park",
    "region": "MN",
    "lat": 44.8422,
    "lng": -92.9911,
    "transactions": 0,
    "revenue": 0,
    "avg_transaction": "N/A",
    "weight": 0
  },
  {
    "city": "Scandia",
    "region": "MN",
    "lat": 45.2536,
    "lng": -92.8056,
    "transactions": 0,
    "revenue": 0,
    "avg_transaction": "N/A",
    "weight": 0
  },
  {
    "city": "Shafer",
    "region": "MN",
    "lat": 45.3869,
    "lng": -92.7475,
    "transactions": 0,
    "revenue": 0,
    "avg_transaction": "N/A",
    "weight": 0
  },
  {
    "city": "Spring Park",
    "region": "MN",
    "lat": 44.9353,
    "lng": -93.6319,
    "transactions": 0,
    "revenue": 0,
    "avg_transaction": "N/A",
    "weight": 0
  },
  {
    "city": "Stanchfield",
    "region": "MN",
    "lat": 45.6733,
    "lng": -93.1831,
    "transactions": 0,
    "revenue": 0,
    "avg_transaction": "N/A",
    "weight": 0
  },
  {
    "city": "Taylors Falls",
    "region": "MN",
    "lat": 45.4019,
    "lng": -92.6522,
    "transactions": 0,
    "revenue": 0,
    "avg_transaction": "N/A",
    "weight": 0
  },
  {
    "city": "Waverly",
    "region": "MN",
    "lat": 45.0667,
    "lng": -93.9661,
    "transactions": 0,
    "revenue": 0,
    "avg_transaction": "N/A",
    "weight": 0
  },
  {
    "city": "Dalbo",
    "region": "MN",
    "lat": 45.6589,
    "lng": -93.3986,
    "transactions": 0,
    "revenue": 0,
    "avg_transaction": "N/A",
    "weight": 0
  },
  {
    "city": "Lakeland",
    "region": "MN",
    "lat": 44.9564,
    "lng": -92.7656,
    "transactions": 0,
    "revenue": 0,
    "avg_transaction": "N/A",
    "weight": 0
  },
  {
    "city": "New Germany",
    "region": "MN",
    "lat": 44.8842,
    "lng": -93.9703,
    "transactions": 0,
    "revenue": 0,
    "avg_transaction": "N/A",
    "weight": 0
  },
  {
    "city": "Randolph",
    "region": "MN",
    "lat": 44.5261,
    "lng": -93.0197,
    "transactions": 0,
    "revenue": 0,
    "avg_transaction": "N/A",
    "weight": 0
  },
  {
    "city": "Marine on Saint Croix",
    "region": "MN",
    "lat": 45.3667,
    "lng": -92.7708,
    "transactions": 0,
    "revenue": 0,
    "avg_transaction": "N/A",
    "weight": 0
  },
  {
    "city": "Edina",
    "region": "MN",
    "lat": 44.8897,
    "lng": -93.3497,
    "transactions": 0,
    "revenue": 0,
    "avg_transaction": "N/A",
    "weight": 0
  },
  {
    "city": "Elko New Market",
    "region": "MN",
    "lat": 44.5755396,
    "lng": -93.3735692,
    "transactions": 0,
    "revenue": 0,
    "avg_transaction": "N/A",
    "weight": 0
  },
  {
    "city": "Osseo",
    "region": "MN",
    "lat": 45.1194,
    "lng": -93.4022,
    "transactions": 0,
    "revenue": 0,
    "avg_transaction": "N/A",
    "weight": 0
  },
  {
    "city": "Eagan",
    "region": "MN",
    "lat": 44.8042,
    "lng": -93.1667,
    "transactions": 0,
    "revenue": 0,
    "avg_transaction": "N/A",
    "weight": 0
  },
  {
    "city": "Robbinsdale",
    "region": "MN",
    "lat": 45.0322,
    "lng": -93.3383,
    "transactions": 0,
    "revenue": 0,
    "avg_transaction": "N/A",
    "weight": 0
  },
  {
    "city": "Bloomington",
    "region": "MN",
    "lat": 44.8408,
    "lng": -93.2981,
    "transactions": 0,
    "revenue": 0,
    "avg_transaction": "N/A",
    "weight": 0
  },
  {
    "city": "Roseville",
    "region": "MN",
    "lat": 45.0061,
    "lng": -93.1564,
    "transactions": 0,
    "revenue": 0,
    "avg_transaction": "N/A",
    "weight": 0
  },
  {
    "city": "Lino Lakes",
    "region": "MN",
    "lat": 45.1603,
    "lng": -93.0886,
    "transactions": 0,
    "revenue": 0,
    "avg_transaction": "N/A",
    "weight": 0
  },
  {
    "city": "Richfield",
    "region": "MN",
    "lat": 44.8833,
    "lng": -93.2828,
    "transactions": 0,
    "revenue": 0,
    "avg_transaction": "N/A",
    "weight": 0
  },
  {
    "city": "Woodbury",
    "region": "MN",
    "lat": 44.9239,
    "lng": -92.9592,
    "transactions": 0,
    "revenue": 0,
    "avg_transaction": "N/A",
    "weight": 0
  },
  {
    "city": "Brooklyn Park",
    "region": "MN",
    "lat": 45.0942,
    "lng": -93.3561,
    "transactions": 0,
    "revenue": 0,
    "avg_transaction": "N/A",
    "weight": 0
  },
  {
    "city": "Golden Valley",
    "region": "MN",
    "lat": 45.0097,
    "lng": -93.3489,
    "transactions": 0,
    "revenue": 0,
    "avg_transaction": "N/A",
    "weight": 0
  },
  {
    "city": "White Bear Lake",
    "region": "MN",
    "lat": 45.0847,
    "lng": -93.0097,
    "transactions": 0,
    "revenue": 0,
    "avg_transaction": "N/A",
    "weight": 0
  },
  {
    "city": "ghostery",
    "region": "MN",
    "lat": 45.7863,
    "lng": -94.0218,
    "transactions": 0,
    "revenue": 0,
    "avg_transaction": "N/A",
    "weight": 0
  },
  {
    "city": "cliqz.com/tracking",
    "region": "MN",
    "lat": 45.7863,
    "lng": -94.0218,
    "transactions": 0,
    "revenue": 0,
    "avg_transaction": "N/A",
    "weight": 0
  },
  {
    "city": "Canby",
    "region": "MN",
    "lat": 44.7089,
    "lng": -96.2761,
    "transactions": 0,
    "revenue": 0,
    "avg_transaction": "N/A",
    "weight": 0
  },
  {
    "city": "Willmar",
    "region": "MN",
    "lat": 45.1219,
    "lng": -95.0431,
    "transactions": 0,
    "revenue": 0,
    "avg_transaction": "N/A",
    "weight": 0
  },
  {
    "city": "Litchfield",
    "region": "MN",
    "lat": 45.1272,
    "lng": -94.5278,
    "transactions": 0,
    "revenue": 0,
    "avg_transaction": "N/A",
    "weight": 0
  },
  {
    "city": "Aitkin",
    "region": "MN",
    "lat": 46.5331,
    "lng": -93.71,
    "transactions": 0,
    "revenue": 0,
    "avg_transaction": "N/A",
    "weight": 0
  },
  {
    "city": "Akeley",
    "region": "MN",
    "lat": 47.0042,
    "lng": -94.7267,
    "transactions": 0,
    "revenue": 0,
    "avg_transaction": "N/A",
    "weight": 0
  },
  {
    "city": "Albany",
    "region": "MN",
    "lat": 45.63,
    "lng": -94.5697,
    "transactions": 0,
    "revenue": 0,
    "avg_transaction": "N/A",
    "weight": 0
  },
  {
    "city": "Alberta",
    "region": "MN",
    "lat": 45.5733,
    "lng": -96.0472,
    "transactions": 0,
    "revenue": 0,
    "avg_transaction": "N/A",
    "weight": 0
  },
  {
    "city": "Alexandria",
    "region": "MN",
    "lat": 45.8853,
    "lng": -95.3772,
    "transactions": 0,
    "revenue": 0,
    "avg_transaction": "N/A",
    "weight": 0
  },
  {
    "city": "Alpha",
    "region": "MN",
    "lat": 43.6389,
    "lng": -94.8706,
    "transactions": 0,
    "revenue": 0,
    "avg_transaction": "N/A",
    "weight": 0
  },
  {
    "city": "Appleton",
    "region": "MN",
    "lat": 45.1969,
    "lng": -96.0194,
    "transactions": 0,
    "revenue": 0,
    "avg_transaction": "N/A",
    "weight": 0
  },
  {
    "city": "Arlington",
    "region": "MN",
    "lat": 44.6083,
    "lng": -94.0803,
    "transactions": 0,
    "revenue": 0,
    "avg_transaction": "N/A",
    "weight": 0
  },
  {
    "city": "Ashby",
    "region": "MN",
    "lat": 46.0931,
    "lng": -95.8172,
    "transactions": 0,
    "revenue": 0,
    "avg_transaction": "N/A",
    "weight": 0
  },
  {
    "city": "Askov",
    "region": "MN",
    "lat": 46.1867,
    "lng": -92.7822,
    "transactions": 0,
    "revenue": 0,
    "avg_transaction": "N/A",
    "weight": 0
  },
  {
    "city": "Avon",
    "region": "MN",
    "lat": 45.6092,
    "lng": -94.4514,
    "transactions": 0,
    "revenue": 0,
    "avg_transaction": "N/A",
    "weight": 0
  },
  {
    "city": "Backus",
    "region": "MN",
    "lat": 46.8203,
    "lng": -94.5161,
    "transactions": 0,
    "revenue": 0,
    "avg_transaction": "N/A",
    "weight": 0
  },
  {
    "city": "Barrett",
    "region": "MN",
    "lat": 45.9106,
    "lng": -95.89,
    "transactions": 0,
    "revenue": 0,
    "avg_transaction": "N/A",
    "weight": 0
  },
  {
    "city": "Baxter",
    "region": "MN",
    "lat": 46.3433,
    "lng": -94.2864,
    "transactions": 0,
    "revenue": 0,
    "avg_transaction": "N/A",
    "weight": 0
  },
  {
    "city": "Belview",
    "region": "MN",
    "lat": 44.6053,
    "lng": -95.3292,
    "transactions": 0,
    "revenue": 0,
    "avg_transaction": "N/A",
    "weight": 0
  },
  {
    "city": "Bemidji",
    "region": "MN",
    "lat": 47.4736,
    "lng": -94.88,
    "transactions": 0,
    "revenue": 0,
    "avg_transaction": "N/A",
    "weight": 0
  },
  {
    "city": "Benson",
    "region": "MN",
    "lat": 45.315,
    "lng": -95.5997,
    "transactions": 0,
    "revenue": 0,
    "avg_transaction": "N/A",
    "weight": 0
  },
  {
    "city": "Bertha",
    "region": "MN",
    "lat": 46.2667,
    "lng": -95.0625,
    "transactions": 0,
    "revenue": 0,
    "avg_transaction": "N/A",
    "weight": 0
  },
  {
    "city": "Blackduck",
    "region": "MN",
    "lat": 47.7331,
    "lng": -94.5483,
    "transactions": 0,
    "revenue": 0,
    "avg_transaction": "N/A",
    "weight": 0
  },
  {
    "city": "Blooming Prairie",
    "region": "MN",
    "lat": 43.8667,
    "lng": -93.0508,
    "transactions": 0,
    "revenue": 0,
    "avg_transaction": "N/A",
    "weight": 0
  },
  {
    "city": "Bowlus",
    "region": "MN",
    "lat": 45.8194,
    "lng": -94.4092,
    "transactions": 0,
    "revenue": 0,
    "avg_transaction": "N/A",
    "weight": 0
  },
  {
    "city": "Brainerd",
    "region": "MN",
    "lat": 46.3581,
    "lng": -94.2006,
    "transactions": 0,
    "revenue": 0,
    "avg_transaction": "N/A",
    "weight": 0
  },
  {
    "city": "Brandon",
    "region": "MN",
    "lat": 45.9653,
    "lng": -95.5983,
    "transactions": 0,
    "revenue": 0,
    "avg_transaction": "N/A",
    "weight": 0
  },
  {
    "city": "Brook Park",
    "region": "MN",
    "lat": 45.9494,
    "lng": -93.0753,
    "transactions": 0,
    "revenue": 0,
    "avg_transaction": "N/A",
    "weight": 0
  },
  {
    "city": "Brooten",
    "region": "MN",
    "lat": 45.5011,
    "lng": -95.1242,
    "transactions": 0,
    "revenue": 0,
    "avg_transaction": "N/A",
    "weight": 0
  },
  {
    "city": "Browerville",
    "region": "MN",
    "lat": 46.0858,
    "lng": -94.8656,
    "transactions": 0,
    "revenue": 0,
    "avg_transaction": "N/A",
    "weight": 0
  },
  {
    "city": "Browns Valley",
    "region": "MN",
    "lat": 45.5953,
    "lng": -96.8331,
    "transactions": 0,
    "revenue": 0,
    "avg_transaction": "N/A",
    "weight": 0
  },
  {
    "city": "Buffalo Lake",
    "region": "MN",
    "lat": 44.7372,
    "lng": -94.6167,
    "transactions": 0,
    "revenue": 0,
    "avg_transaction": "N/A",
    "weight": 0
  },
  {
    "city": "Burtrum",
    "region": "MN",
    "lat": 45.8675,
    "lng": -94.6847,
    "transactions": 0,
    "revenue": 0,
    "avg_transaction": "N/A",
    "weight": 0
  },
  {
    "city": "Cannon Falls",
    "region": "MN",
    "lat": 44.5069,
    "lng": -92.9053,
    "transactions": 0,
    "revenue": 0,
    "avg_transaction": "N/A",
    "weight": 0
  },
  {
    "city": "Cass Lake",
    "region": "MN",
    "lat": 47.3794,
    "lng": -94.6039,
    "transactions": 0,
    "revenue": 0,
    "avg_transaction": "N/A",
    "weight": 0
  },
  {
    "city": "Chokio",
    "region": "MN",
    "lat": 45.5717,
    "lng": -96.1731,
    "transactions": 0,
    "revenue": 0,
    "avg_transaction": "N/A",
    "weight": 0
  },
  {
    "city": "Clara City",
    "region": "MN",
    "lat": 44.955,
    "lng": -95.3661,
    "transactions": 0,
    "revenue": 0,
    "avg_transaction": "N/A",
    "weight": 0
  },
  {
    "city": "Clarkfield",
    "region": "MN",
    "lat": 44.7906,
    "lng": -95.8083,
    "transactions": 0,
    "revenue": 0,
    "avg_transaction": "N/A",
    "weight": 0
  },
  {
    "city": "Clearwater",
    "region": "MN",
    "lat": 45.4194,
    "lng": -94.0486,
    "transactions": 0,
    "revenue": 0,
    "avg_transaction": "N/A",
    "weight": 0
  },
  {
    "city": "Cleveland",
    "region": "MN",
    "lat": 44.3256,
    "lng": -93.8375,
    "transactions": 0,
    "revenue": 0,
    "avg_transaction": "N/A",
    "weight": 0
  },
  {
    "city": "Cold Spring",
    "region": "MN",
    "lat": 45.4558,
    "lng": -94.4286,
    "transactions": 0,
    "revenue": 0,
    "avg_transaction": "N/A",
    "weight": 0
  },
  {
    "city": "Collegeville",
    "region": "MN",
    "lat": 45.5944,
    "lng": -94.3628,
    "transactions": 0,
    "revenue": 0,
    "avg_transaction": "N/A",
    "weight": 0
  },
  {
    "city": "Cosmos",
    "region": "MN",
    "lat": 44.9361,
    "lng": -94.6964,
    "transactions": 0,
    "revenue": 0,
    "avg_transaction": "N/A",
    "weight": 0
  },
  {
    "city": "Cottonwood",
    "region": "MN",
    "lat": 44.6089,
    "lng": -95.6739,
    "transactions": 0,
    "revenue": 0,
    "avg_transaction": "N/A",
    "weight": 0
  },
  {
    "city": "Crosby",
    "region": "MN",
    "lat": 46.4822,
    "lng": -93.9575,
    "transactions": 0,
    "revenue": 0,
    "avg_transaction": "N/A",
    "weight": 0
  },
  {
    "city": "Cross Lake",
    "region": "MN",
    "lat": 46.6594,
    "lng": -94.1136,
    "transactions": 0,
    "revenue": 0,
    "avg_transaction": "N/A",
    "weight": 0
  },
  {
    "city": "Darwin",
    "region": "MN",
    "lat": 45.0964,
    "lng": -94.4106,
    "transactions": 0,
    "revenue": 0,
    "avg_transaction": "N/A",
    "weight": 0
  },
  {
    "city": "Dassel",
    "region": "MN",
    "lat": 45.0817,
    "lng": -94.3067,
    "transactions": 0,
    "revenue": 0,
    "avg_transaction": "N/A",
    "weight": 0
  },
  {
    "city": "Dawson",
    "region": "MN",
    "lat": 44.9328,
    "lng": -96.0542,
    "transactions": 0,
    "revenue": 0,
    "avg_transaction": "N/A",
    "weight": 0
  },
  {
    "city": "Deer Creek",
    "region": "MN",
    "lat": 46.3911,
    "lng": -95.3211,
    "transactions": 0,
    "revenue": 0,
    "avg_transaction": "N/A",
    "weight": 0
  },
  {
    "city": "Dennison",
    "region": "MN",
    "lat": 44.4069,
    "lng": -93.0392,
    "transactions": 0,
    "revenue": 0,
    "avg_transaction": "N/A",
    "weight": 0
  },
  {
    "city": "Dumont",
    "region": "MN",
    "lat": 45.7158,
    "lng": -96.4256,
    "transactions": 0,
    "revenue": 0,
    "avg_transaction": "N/A",
    "weight": 0
  },
  {
    "city": "Dundas",
    "region": "MN",
    "lat": 44.4294,
    "lng": -93.2017,
    "transactions": 0,
    "revenue": 0,
    "avg_transaction": "N/A",
    "weight": 0
  },
  {
    "city": "Eagle Bend",
    "region": "MN",
    "lat": 46.165,
    "lng": -95.0389,
    "transactions": 0,
    "revenue": 0,
    "avg_transaction": "N/A",
    "weight": 0
  },
  {
    "city": "Echo",
    "region": "MN",
    "lat": 44.6169,
    "lng": -95.4172,
    "transactions": 0,
    "revenue": 0,
    "avg_transaction": "N/A",
    "weight": 0
  },
  {
    "city": "Elbow Lake",
    "region": "MN",
    "lat": 45.9942,
    "lng": -95.9764,
    "transactions": 0,
    "revenue": 0,
    "avg_transaction": "N/A",
    "weight": 0
  },
  {
    "city": "Elysian",
    "region": "MN",
    "lat": 44.1986,
    "lng": -93.6736,
    "transactions": 0,
    "revenue": 0,
    "avg_transaction": "N/A",
    "weight": 0
  },
  {
    "city": "Emily",
    "region": "MN",
    "lat": 46.7311,
    "lng": -93.9578,
    "transactions": 0,
    "revenue": 0,
    "avg_transaction": "N/A",
    "weight": 0
  },
  {
    "city": "Evansville",
    "region": "MN",
    "lat": 46.0042,
    "lng": -95.6825,
    "transactions": 0,
    "revenue": 0,
    "avg_transaction": "N/A",
    "weight": 0
  },
  {
    "city": "Fairfax",
    "region": "MN",
    "lat": 44.5292,
    "lng": -94.7206,
    "transactions": 0,
    "revenue": 0,
    "avg_transaction": "N/A",
    "weight": 0
  },
  {
    "city": "Faribault",
    "region": "MN",
    "lat": 43.6767,
    "lng": -93.9149,
    "transactions": 0,
    "revenue": 0,
    "avg_transaction": "N/A",
    "weight": 0
  },
  {
    "city": "Fifty Lakes",
    "region": "MN",
    "lat": 46.7392,
    "lng": -94.0928,
    "transactions": 0,
    "revenue": 0,
    "avg_transaction": "N/A",
    "weight": 0
  },
  {
    "city": "Finlayson",
    "region": "MN",
    "lat": 46.2017,
    "lng": -92.9158,
    "transactions": 0,
    "revenue": 0,
    "avg_transaction": "N/A",
    "weight": 0
  },
  {
    "city": "Foley",
    "region": "MN",
    "lat": 45.6647,
    "lng": -93.9094,
    "transactions": 0,
    "revenue": 0,
    "avg_transaction": "N/A",
    "weight": 0
  },
  {
    "city": "Foreston",
    "region": "MN",
    "lat": 45.7344,
    "lng": -93.7103,
    "transactions": 0,
    "revenue": 0,
    "avg_transaction": "N/A",
    "weight": 0
  },
  {
    "city": "Franklin",
    "region": "MN",
    "lat": 44.5283,
    "lng": -94.8803,
    "transactions": 0,
    "revenue": 0,
    "avg_transaction": "N/A",
    "weight": 0
  },
  {
    "city": "Freeport",
    "region": "MN",
    "lat": 45.6628,
    "lng": -94.6897,
    "transactions": 0,
    "revenue": 0,
    "avg_transaction": "N/A",
    "weight": 0
  },
  {
    "city": "Garfield",
    "region": "MN",
    "lat": 45.9408,
    "lng": -95.4917,
    "transactions": 0,
    "revenue": 0,
    "avg_transaction": "N/A",
    "weight": 0
  },
  {
    "city": "Gaylord",
    "region": "MN",
    "lat": 44.5531,
    "lng": -94.2203,
    "transactions": 0,
    "revenue": 0,
    "avg_transaction": "N/A",
    "weight": 0
  },
  {
    "city": "Glencoe",
    "region": "MN",
    "lat": 44.7692,
    "lng": -94.1514,
    "transactions": 0,
    "revenue": 0,
    "avg_transaction": "N/A",
    "weight": 0
  },
  {
    "city": "Glenwood",
    "region": "MN",
    "lat": 45.6503,
    "lng": -95.3894,
    "transactions": 0,
    "revenue": 0,
    "avg_transaction": "N/A",
    "weight": 0
  },
  {
    "city": "Goodhue",
    "region": "MN",
    "lat": 44.4006,
    "lng": -92.6236,
    "transactions": 0,
    "revenue": 0,
    "avg_transaction": "N/A",
    "weight": 0
  },
  {
    "city": "Granite Falls",
    "region": "MN",
    "lat": 44.81,
    "lng": -95.5453,
    "transactions": 0,
    "revenue": 0,
    "avg_transaction": "N/A",
    "weight": 0
  },
  {
    "city": "Grove City",
    "region": "MN",
    "lat": 45.1506,
    "lng": -94.6828,
    "transactions": 0,
    "revenue": 0,
    "avg_transaction": "N/A",
    "weight": 0
  },
  {
    "city": "Hackensack",
    "region": "MN",
    "lat": 46.9308,
    "lng": -94.5203,
    "transactions": 0,
    "revenue": 0,
    "avg_transaction": "N/A",
    "weight": 0
  },
  {
    "city": "Hancock",
    "region": "MN",
    "lat": 45.4975,
    "lng": -95.7964,
    "transactions": 0,
    "revenue": 0,
    "avg_transaction": "N/A",
    "weight": 0
  },
  {
    "city": "Hanley Falls",
    "region": "MN",
    "lat": 44.6928,
    "lng": -95.6217,
    "transactions": 0,
    "revenue": 0,
    "avg_transaction": "N/A",
    "weight": 0
  },
  {
    "city": "Herman",
    "region": "MN",
    "lat": 45.8086,
    "lng": -96.1431,
    "transactions": 0,
    "revenue": 0,
    "avg_transaction": "N/A",
    "weight": 0
  },
  {
    "city": "Hewitt",
    "region": "MN",
    "lat": 46.3256,
    "lng": -95.0864,
    "transactions": 0,
    "revenue": 0,
    "avg_transaction": "N/A",
    "weight": 0
  },
  {
    "city": "Hinckley",
    "region": "MN",
    "lat": 46.0114,
    "lng": -92.9442,
    "transactions": 0,
    "revenue": 0,
    "avg_transaction": "N/A",
    "weight": 0
  },
  {
    "city": "Hines",
    "region": "MN",
    "lat": 47.6861,
    "lng": -94.6325,
    "transactions": 0,
    "revenue": 0,
    "avg_transaction": "N/A",
    "weight": 0
  },
  {
    "city": "Hutchinson",
    "region": "MN",
    "lat": 44.8878,
    "lng": -94.3694,
    "transactions": 0,
    "revenue": 0,
    "avg_transaction": "N/A",
    "weight": 0
  },
  {
    "city": "Ironton",
    "region": "MN",
    "lat": 46.4775,
    "lng": -93.9775,
    "transactions": 0,
    "revenue": 0,
    "avg_transaction": "N/A",
    "weight": 0
  },
  {
    "city": "Isle",
    "region": "MN",
    "lat": 46.1381,
    "lng": -93.4706,
    "transactions": 0,
    "revenue": 0,
    "avg_transaction": "N/A",
    "weight": 0
  },
  {
    "city": "Jackson",
    "region": "MN",
    "lat": 43.6208,
    "lng": -94.9883,
    "transactions": 0,
    "revenue": 0,
    "avg_transaction": "N/A",
    "weight": 0
  },
  {
    "city": "Janesville",
    "region": "MN",
    "lat": 44.1161,
    "lng": -93.7078,
    "transactions": 0,
    "revenue": 0,
    "avg_transaction": "N/A",
    "weight": 0
  },
  {
    "city": "Jeffers",
    "region": "MN",
    "lat": 44.0558,
    "lng": -95.1964,
    "transactions": 0,
    "revenue": 0,
    "avg_transaction": "N/A",
    "weight": 0
  },
  {
    "city": "Kenyon",
    "region": "MN",
    "lat": 44.2722,
    "lng": -92.9853,
    "transactions": 0,
    "revenue": 0,
    "avg_transaction": "N/A",
    "weight": 0
  },
  {
    "city": "Kimball",
    "region": "MN",
    "lat": 45.3125,
    "lng": -94.3,
    "transactions": 0,
    "revenue": 0,
    "avg_transaction": "N/A",
    "weight": 0
  },
  {
    "city": "Lake City",
    "region": "MN",
    "lat": 44.4494,
    "lng": -92.2667,
    "transactions": 0,
    "revenue": 0,
    "avg_transaction": "N/A",
    "weight": 0
  },
  {
    "city": "Lake Hubert",
    "region": "MN",
    "lat": 46.5022,
    "lng": -94.2572,
    "transactions": 0,
    "revenue": 0,
    "avg_transaction": "N/A",
    "weight": 0
  },
  {
    "city": "Lakefield",
    "region": "MN",
    "lat": 43.6775,
    "lng": -95.1714,
    "transactions": 0,
    "revenue": 0,
    "avg_transaction": "N/A",
    "weight": 0
  },
  {
    "city": "Lamberton",
    "region": "MN",
    "lat": 44.2311,
    "lng": -95.2639,
    "transactions": 0,
    "revenue": 0,
    "avg_transaction": "N/A",
    "weight": 0
  },
  {
    "city": "Laporte",
    "region": "MN",
    "lat": 47.2139,
    "lng": -94.7539,
    "transactions": 0,
    "revenue": 0,
    "avg_transaction": "N/A",
    "weight": 0
  },
  {
    "city": "Le Center",
    "region": "MN",
    "lat": 44.3894,
    "lng": -93.73,
    "transactions": 0,
    "revenue": 0,
    "avg_transaction": "N/A",
    "weight": 0
  },
  {
    "city": "Le Sueur",
    "region": "MN",
    "lat": 44.4614,
    "lng": -93.915,
    "transactions": 0,
    "revenue": 0,
    "avg_transaction": "N/A",
    "weight": 0
  },
  {
    "city": "Lester Prairie",
    "region": "MN",
    "lat": 44.8839,
    "lng": -94.0414,
    "transactions": 0,
    "revenue": 0,
    "avg_transaction": "N/A",
    "weight": 0
  },
  {
    "city": "Little Falls",
    "region": "MN",
    "lat": 45.9764,
    "lng": -94.3622,
    "transactions": 0,
    "revenue": 0,
    "avg_transaction": "N/A",
    "weight": 0
  },
  {
    "city": "Little Rock",
    "region": "MN",
    "lat": 47.8681,
    "lng": -95.1103,
    "transactions": 0,
    "revenue": 0,
    "avg_transaction": "N/A",
    "weight": 0
  },
  {
    "city": "Long Prairie",
    "region": "MN",
    "lat": 45.9747,
    "lng": -94.8653,
    "transactions": 0,
    "revenue": 0,
    "avg_transaction": "N/A",
    "weight": 0
  },
  {
    "city": "Longville",
    "region": "MN",
    "lat": 46.9864,
    "lng": -94.2111,
    "transactions": 0,
    "revenue": 0,
    "avg_transaction": "N/A",
    "weight": 0
  },
  {
    "city": "Lonsdale",
    "region": "MN",
    "lat": 44.4803,
    "lng": -93.4283,
    "transactions": 0,
    "revenue": 0,
    "avg_transaction": "N/A",
    "weight": 0
  },
  {
    "city": "Lowry",
    "region": "MN",
    "lat": 45.705,
    "lng": -95.5178,
    "transactions": 0,
    "revenue": 0,
    "avg_transaction": "N/A",
    "weight": 0
  },
  {
    "city": "Lucan",
    "region": "MN",
    "lat": 44.4097,
    "lng": -95.4103,
    "transactions": 0,
    "revenue": 0,
    "avg_transaction": "N/A",
    "weight": 0
  },
  {
    "city": "Madison",
    "region": "MN",
    "lat": 45.0097,
    "lng": -96.1956,
    "transactions": 0,
    "revenue": 0,
    "avg_transaction": "N/A",
    "weight": 0
  },
  {
    "city": "Marshall",
    "region": "MN",
    "lat": 48.2674,
    "lng": -96.6996,
    "transactions": 0,
    "revenue": 0,
    "avg_transaction": "N/A",
    "weight": 0
  },
  {
    "city": "Maynard",
    "region": "MN",
    "lat": 44.9069,
    "lng": -95.4686,
    "transactions": 0,
    "revenue": 0,
    "avg_transaction": "N/A",
    "weight": 0
  },
  {
    "city": "McGregor",
    "region": "MN",
    "lat": 46.6067,
    "lng": -93.3136,
    "transactions": 0,
    "revenue": 0,
    "avg_transaction": "N/A",
    "weight": 0
  },
  {
    "city": "Medford",
    "region": "MN",
    "lat": 44.1742,
    "lng": -93.2461,
    "transactions": 0,
    "revenue": 0,
    "avg_transaction": "N/A",
    "weight": 0
  },
  {
    "city": "Melrose",
    "region": "MN",
    "lat": 45.6747,
    "lng": -94.8072,
    "transactions": 0,
    "revenue": 0,
    "avg_transaction": "N/A",
    "weight": 0
  },
  {
    "city": "Menahga",
    "region": "MN",
    "lat": 46.7539,
    "lng": -95.0978,
    "transactions": 0,
    "revenue": 0,
    "avg_transaction": "N/A",
    "weight": 0
  },
  {
    "city": "Milaca",
    "region": "MN",
    "lat": 45.7558,
    "lng": -93.6542,
    "transactions": 0,
    "revenue": 0,
    "avg_transaction": "N/A",
    "weight": 0
  },
  {
    "city": "Milan",
    "region": "MN",
    "lat": 45.1086,
    "lng": -95.9131,
    "transactions": 0,
    "revenue": 0,
    "avg_transaction": "N/A",
    "weight": 0
  },
  {
    "city": "Milroy",
    "region": "MN",
    "lat": 44.4178,
    "lng": -95.5531,
    "transactions": 0,
    "revenue": 0,
    "avg_transaction": "N/A",
    "weight": 0
  },
  {
    "city": "Miltona",
    "region": "MN",
    "lat": 46.0442,
    "lng": -95.2911,
    "transactions": 0,
    "revenue": 0,
    "avg_transaction": "N/A",
    "weight": 0
  },
  {
    "city": "Minneota",
    "region": "MN",
    "lat": 44.5589,
    "lng": -95.9853,
    "transactions": 0,
    "revenue": 0,
    "avg_transaction": "N/A",
    "weight": 0
  },
  {
    "city": "Montevideo",
    "region": "MN",
    "lat": 44.9425,
    "lng": -95.7233,
    "transactions": 0,
    "revenue": 0,
    "avg_transaction": "N/A",
    "weight": 0
  },
  {
    "city": "Montgomery",
    "region": "MN",
    "lat": 44.4389,
    "lng": -93.5811,
    "transactions": 0,
    "revenue": 0,
    "avg_transaction": "N/A",
    "weight": 0
  },
  {
    "city": "Mora",
    "region": "MN",
    "lat": 45.8769,
    "lng": -93.2936,
    "transactions": 0,
    "revenue": 0,
    "avg_transaction": "N/A",
    "weight": 0
  },
  {
    "city": "Morgan",
    "region": "MN",
    "lat": 44.4169,
    "lng": -94.9253,
    "transactions": 0,
    "revenue": 0,
    "avg_transaction": "N/A",
    "weight": 0
  },
  {
    "city": "Morris",
    "region": "MN",
    "lat": 45.5861,
    "lng": -95.9136,
    "transactions": 0,
    "revenue": 0,
    "avg_transaction": "N/A",
    "weight": 0
  },
  {
    "city": "Morristown",
    "region": "MN",
    "lat": 44.2272,
    "lng": -93.4444,
    "transactions": 0,
    "revenue": 0,
    "avg_transaction": "N/A",
    "weight": 0
  },
  {
    "city": "Mountain Lake",
    "region": "MN",
    "lat": 43.9389,
    "lng": -94.9294,
    "transactions": 0,
    "revenue": 0,
    "avg_transaction": "N/A",
    "weight": 0
  },
  {
    "city": "Murdock",
    "region": "MN",
    "lat": 45.2239,
    "lng": -95.3931,
    "transactions": 0,
    "revenue": 0,
    "avg_transaction": "N/A",
    "weight": 0
  },
  {
    "city": "Nerstrand",
    "region": "MN",
    "lat": 44.3419,
    "lng": -93.0678,
    "transactions": 0,
    "revenue": 0,
    "avg_transaction": "N/A",
    "weight": 0
  },
  {
    "city": "Nevis",
    "region": "MN",
    "lat": 46.9653,
    "lng": -94.8392,
    "transactions": 0,
    "revenue": 0,
    "avg_transaction": "N/A",
    "weight": 0
  },
  {
    "city": "New London",
    "region": "MN",
    "lat": 45.3011,
    "lng": -94.9439,
    "transactions": 0,
    "revenue": 0,
    "avg_transaction": "N/A",
    "weight": 0
  },
  {
    "city": "New Prague",
    "region": "MN",
    "lat": 44.5433,
    "lng": -93.5758,
    "transactions": 0,
    "revenue": 0,
    "avg_transaction": "N/A",
    "weight": 0
  },
  {
    "city": "Nisswa",
    "region": "MN",
    "lat": 46.5206,
    "lng": -94.2883,
    "transactions": 0,
    "revenue": 0,
    "avg_transaction": "N/A",
    "weight": 0
  },
  {
    "city": "Northfield",
    "region": "MN",
    "lat": 44.4583,
    "lng": -93.1614,
    "transactions": 0,
    "revenue": 0,
    "avg_transaction": "N/A",
    "weight": 0
  },
  {
    "city": "Olivia",
    "region": "MN",
    "lat": 44.7764,
    "lng": -94.9894,
    "transactions": 0,
    "revenue": 0,
    "avg_transaction": "N/A",
    "weight": 0
  },
  {
    "city": "Onamia",
    "region": "MN",
    "lat": 46.0706,
    "lng": -93.6675,
    "transactions": 0,
    "revenue": 0,
    "avg_transaction": "N/A",
    "weight": 0
  },
  {
    "city": "Ortonville",
    "region": "MN",
    "lat": 45.3047,
    "lng": -96.4444,
    "transactions": 0,
    "revenue": 0,
    "avg_transaction": "N/A",
    "weight": 0
  },
  {
    "city": "Osakis",
    "region": "MN",
    "lat": 45.8669,
    "lng": -95.1519,
    "transactions": 0,
    "revenue": 0,
    "avg_transaction": "N/A",
    "weight": 0
  },
  {
    "city": "Owatonna",
    "region": "MN",
    "lat": 44.0839,
    "lng": -93.2258,
    "transactions": 0,
    "revenue": 0,
    "avg_transaction": "N/A",
    "weight": 0
  },
  {
    "city": "Park Rapids",
    "region": "MN",
    "lat": 46.9222,
    "lng": -95.0583,
    "transactions": 0,
    "revenue": 0,
    "avg_transaction": "N/A",
    "weight": 0
  },
  {
    "city": "Paynesville",
    "region": "MN",
    "lat": 45.3806,
    "lng": -94.7117,
    "transactions": 0,
    "revenue": 0,
    "avg_transaction": "N/A",
    "weight": 0
  },
  {
    "city": "Pennock",
    "region": "MN",
    "lat": 45.1489,
    "lng": -95.1761,
    "transactions": 0,
    "revenue": 0,
    "avg_transaction": "N/A",
    "weight": 0
  },
  {
    "city": "Pequot Lakes",
    "region": "MN",
    "lat": 46.6031,
    "lng": -94.3092,
    "transactions": 0,
    "revenue": 0,
    "avg_transaction": "N/A",
    "weight": 0
  },
  {
    "city": "Pillager",
    "region": "MN",
    "lat": 46.33,
    "lng": -94.4739,
    "transactions": 0,
    "revenue": 0,
    "avg_transaction": "N/A",
    "weight": 0
  },
  {
    "city": "Pine City",
    "region": "MN",
    "lat": 45.8261,
    "lng": -92.9683,
    "transactions": 0,
    "revenue": 0,
    "avg_transaction": "N/A",
    "weight": 0
  },
  {
    "city": "Pine Island",
    "region": "MN",
    "lat": 44.2014,
    "lng": -92.6461,
    "transactions": 0,
    "revenue": 0,
    "avg_transaction": "N/A",
    "weight": 0
  },
  {
    "city": "Pine River",
    "region": "MN",
    "lat": 46.7181,
    "lng": -94.4039,
    "transactions": 0,
    "revenue": 0,
    "avg_transaction": "N/A",
    "weight": 0
  },
  {
    "city": "Plainview",
    "region": "MN",
    "lat": 44.165,
    "lng": -92.1714,
    "transactions": 0,
    "revenue": 0,
    "avg_transaction": "N/A",
    "weight": 0
  },
  {
    "city": "Plato",
    "region": "MN",
    "lat": 44.7744,
    "lng": -94.0397,
    "transactions": 0,
    "revenue": 0,
    "avg_transaction": "N/A",
    "weight": 0
  },
  {
    "city": "Princeton",
    "region": "MN",
    "lat": 45.57,
    "lng": -93.5814,
    "transactions": 0,
    "revenue": 0,
    "avg_transaction": "N/A",
    "weight": 0
  },
  {
    "city": "Red Wing",
    "region": "MN",
    "lat": 44.5625,
    "lng": -92.5336,
    "transactions": 0,
    "revenue": 0,
    "avg_transaction": "N/A",
    "weight": 0
  },
  {
    "city": "Redwood Falls",
    "region": "MN",
    "lat": 44.5394,
    "lng": -95.1167,
    "transactions": 0,
    "revenue": 0,
    "avg_transaction": "N/A",
    "weight": 0
  },
  {
    "city": "Remer",
    "region": "MN",
    "lat": 47.0561,
    "lng": -93.9158,
    "transactions": 0,
    "revenue": 0,
    "avg_transaction": "N/A",
    "weight": 0
  },
  {
    "city": "Rice",
    "region": "MN",
    "lat": 45.7519,
    "lng": -94.22,
    "transactions": 0,
    "revenue": 0,
    "avg_transaction": "N/A",
    "weight": 0
  },
  {
    "city": "Richmond",
    "region": "MN",
    "lat": 45.4542,
    "lng": -94.5181,
    "transactions": 0,
    "revenue": 0,
    "avg_transaction": "N/A",
    "weight": 0
  },
  {
    "city": "Rockville",
    "region": "MN",
    "lat": 45.4719,
    "lng": -94.3406,
    "transactions": 0,
    "revenue": 0,
    "avg_transaction": "N/A",
    "weight": 0
  },
  {
    "city": "Royalton",
    "region": "MN",
    "lat": 45.83,
    "lng": -94.2933,
    "transactions": 0,
    "revenue": 0,
    "avg_transaction": "N/A",
    "weight": 0
  },
  {
    "city": "Russell",
    "region": "MN",
    "lat": 44.3192,
    "lng": -95.9514,
    "transactions": 0,
    "revenue": 0,
    "avg_transaction": "N/A",
    "weight": 0
  },
  {
    "city": "Sacred Heart",
    "region": "MN",
    "lat": 44.7869,
    "lng": -95.3514,
    "transactions": 0,
    "revenue": 0,
    "avg_transaction": "N/A",
    "weight": 0
  },
  {
    "city": "Saint Joseph",
    "region": "MN",
    "lat": 45.565,
    "lng": -94.3181,
    "transactions": 0,
    "revenue": 0,
    "avg_transaction": "N/A",
    "weight": 0
  },
  {
    "city": "Saint Peter",
    "region": "MN",
    "lat": 44.3236,
    "lng": -93.9578,
    "transactions": 0,
    "revenue": 0,
    "avg_transaction": "N/A",
    "weight": 0
  },
  {
    "city": "Sandstone",
    "region": "MN",
    "lat": 46.1311,
    "lng": -92.8672,
    "transactions": 0,
    "revenue": 0,
    "avg_transaction": "N/A",
    "weight": 0
  },
  {
    "city": "Sartell",
    "region": "MN",
    "lat": 45.6217,
    "lng": -94.2067,
    "transactions": 0,
    "revenue": 0,
    "avg_transaction": "N/A",
    "weight": 0
  },
  {
    "city": "Sauk Centre",
    "region": "MN",
    "lat": 45.7375,
    "lng": -94.9522,
    "transactions": 0,
    "revenue": 0,
    "avg_transaction": "N/A",
    "weight": 0
  },
  {
    "city": "Sauk Rapids",
    "region": "MN",
    "lat": 45.5919,
    "lng": -94.1658,
    "transactions": 0,
    "revenue": 0,
    "avg_transaction": "N/A",
    "weight": 0
  },
  {
    "city": "Sebeka",
    "region": "MN",
    "lat": 46.63,
    "lng": -95.0886,
    "transactions": 0,
    "revenue": 0,
    "avg_transaction": "N/A",
    "weight": 0
  },
  {
    "city": "Silver Lake",
    "region": "MN",
    "lat": 44.9033,
    "lng": -94.1953,
    "transactions": 0,
    "revenue": 0,
    "avg_transaction": "N/A",
    "weight": 0
  },
  {
    "city": "Spicer",
    "region": "MN",
    "lat": 45.2331,
    "lng": -94.9397,
    "transactions": 0,
    "revenue": 0,
    "avg_transaction": "N/A",
    "weight": 0
  },
  {
    "city": "Staples",
    "region": "MN",
    "lat": 46.3556,
    "lng": -94.7919,
    "transactions": 0,
    "revenue": 0,
    "avg_transaction": "N/A",
    "weight": 0
  },
  {
    "city": "Starbuck",
    "region": "MN",
    "lat": 45.6144,
    "lng": -95.5308,
    "transactions": 0,
    "revenue": 0,
    "avg_transaction": "N/A",
    "weight": 0
  },
  {
    "city": "Stewart",
    "region": "MN",
    "lat": 44.7247,
    "lng": -94.4856,
    "transactions": 0,
    "revenue": 0,
    "avg_transaction": "N/A",
    "weight": 0
  },
  {
    "city": "Sturgeon Lake",
    "region": "MN",
    "lat": 46.3811,
    "lng": -92.8236,
    "transactions": 0,
    "revenue": 0,
    "avg_transaction": "N/A",
    "weight": 0
  },
  {
    "city": "Tenstrike",
    "region": "MN",
    "lat": 47.6567,
    "lng": -94.6744,
    "transactions": 0,
    "revenue": 0,
    "avg_transaction": "N/A",
    "weight": 0
  },
  {
    "city": "Upsala",
    "region": "MN",
    "lat": 45.8108,
    "lng": -94.5711,
    "transactions": 0,
    "revenue": 0,
    "avg_transaction": "N/A",
    "weight": 0
  },
  {
    "city": "Vermillion",
    "region": "MN",
    "lat": 44.6736,
    "lng": -92.9669,
    "transactions": 0,
    "revenue": 0,
    "avg_transaction": "N/A",
    "weight": 0
  },
  {
    "city": "Verndale",
    "region": "MN",
    "lat": 46.3983,
    "lng": -95.0144,
    "transactions": 0,
    "revenue": 0,
    "avg_transaction": "N/A",
    "weight": 0
  },
  {
    "city": "Vesta",
    "region": "MN",
    "lat": 44.5078,
    "lng": -95.4161,
    "transactions": 0,
    "revenue": 0,
    "avg_transaction": "N/A",
    "weight": 0
  },
  {
    "city": "Villard",
    "region": "MN",
    "lat": 45.7156,
    "lng": -95.2689,
    "transactions": 0,
    "revenue": 0,
    "avg_transaction": "N/A",
    "weight": 0
  },
  {
    "city": "Vining",
    "region": "MN",
    "lat": 46.2631,
    "lng": -95.5367,
    "transactions": 0,
    "revenue": 0,
    "avg_transaction": "N/A",
    "weight": 0
  },
  {
    "city": "Wabasha",
    "region": "MN",
    "lat": 44.3839,
    "lng": -92.0328,
    "transactions": 0,
    "revenue": 0,
    "avg_transaction": "N/A",
    "weight": 0
  },
  {
    "city": "Wabasso",
    "region": "MN",
    "lat": 44.4019,
    "lng": -95.2556,
    "transactions": 0,
    "revenue": 0,
    "avg_transaction": "N/A",
    "weight": 0
  },
  {
    "city": "Wadena",
    "region": "MN",
    "lat": 46.4425,
    "lng": -95.1358,
    "transactions": 0,
    "revenue": 0,
    "avg_transaction": "N/A",
    "weight": 0
  },
  {
    "city": "Wahkon",
    "region": "MN",
    "lat": 46.1183,
    "lng": -93.5208,
    "transactions": 0,
    "revenue": 0,
    "avg_transaction": "N/A",
    "weight": 0
  },
  {
    "city": "Waite Park",
    "region": "MN",
    "lat": 45.5572,
    "lng": -94.2239,
    "transactions": 0,
    "revenue": 0,
    "avg_transaction": "N/A",
    "weight": 0
  },
  {
    "city": "Walker",
    "region": "MN",
    "lat": 47.1014,
    "lng": -94.5869,
    "transactions": 0,
    "revenue": 0,
    "avg_transaction": "N/A",
    "weight": 0
  },
  {
    "city": "Wanamingo",
    "region": "MN",
    "lat": 44.3044,
    "lng": -92.7903,
    "transactions": 0,
    "revenue": 0,
    "avg_transaction": "N/A",
    "weight": 0
  },
  {
    "city": "Waseca",
    "region": "MN",
    "lat": 44.0778,
    "lng": -93.5072,
    "transactions": 0,
    "revenue": 0,
    "avg_transaction": "N/A",
    "weight": 0
  },
  {
    "city": "Waterville",
    "region": "MN",
    "lat": 44.2189,
    "lng": -93.5678,
    "transactions": 0,
    "revenue": 0,
    "avg_transaction": "N/A",
    "weight": 0
  },
  {
    "city": "Watkins",
    "region": "MN",
    "lat": 45.3153,
    "lng": -94.4083,
    "transactions": 0,
    "revenue": 0,
    "avg_transaction": "N/A",
    "weight": 0
  },
  {
    "city": "Watson",
    "region": "MN",
    "lat": 45.0097,
    "lng": -95.8011,
    "transactions": 0,
    "revenue": 0,
    "avg_transaction": "N/A",
    "weight": 0
  },
  {
    "city": "Webster",
    "region": "MN",
    "lat": 44.5297,
    "lng": -93.3525,
    "transactions": 0,
    "revenue": 0,
    "avg_transaction": "N/A",
    "weight": 0
  },
  {
    "city": "Williams",
    "region": "MN",
    "lat": 48.7683,
    "lng": -94.955,
    "transactions": 0,
    "revenue": 0,
    "avg_transaction": "N/A",
    "weight": 0
  },
  {
    "city": "Willow River",
    "region": "MN",
    "lat": 46.3183,
    "lng": -92.8411,
    "transactions": 0,
    "revenue": 0,
    "avg_transaction": "N/A",
    "weight": 0
  },
  {
    "city": "Windom",
    "region": "MN",
    "lat": 43.8664,
    "lng": -95.1167,
    "transactions": 0,
    "revenue": 0,
    "avg_transaction": "N/A",
    "weight": 0
  },
  {
    "city": "Winsted",
    "region": "MN",
    "lat": 44.9639,
    "lng": -94.0472,
    "transactions": 0,
    "revenue": 0,
    "avg_transaction": "N/A",
    "weight": 0
  },
  {
    "city": "Winthrop",
    "region": "MN",
    "lat": 44.5431,
    "lng": -94.3661,
    "transactions": 0,
    "revenue": 0,
    "avg_transaction": "N/A",
    "weight": 0
  },
  {
    "city": "Wood Lake",
    "region": "MN",
    "lat": 44.6528,
    "lng": -95.5381,
    "transactions": 0,
    "revenue": 0,
    "avg_transaction": "N/A",
    "weight": 0
  },
  {
    "city": "Zumbrota",
    "region": "MN",
    "lat": 44.2942,
    "lng": -92.6689,
    "transactions": 0,
    "revenue": 0,
    "avg_transaction": "N/A",
    "weight": 0
  },
  {
    "city": "Atwater",
    "region": "MN",
    "lat": 45.1389,
    "lng": -94.7778,
    "transactions": 0,
    "revenue": 0,
    "avg_transaction": "N/A",
    "weight": 0
  },
  {
    "city": "Belgrade",
    "region": "MN",
    "lat": 45.4531,
    "lng": -95.0042,
    "transactions": 0,
    "revenue": 0,
    "avg_transaction": "N/A",
    "weight": 0
  },
  {
    "city": "Brownton",
    "region": "MN",
    "lat": 44.7319,
    "lng": -94.35,
    "transactions": 0,
    "revenue": 0,
    "avg_transaction": "N/A",
    "weight": 0
  },
  {
    "city": "Claremont",
    "region": "MN",
    "lat": 44.0444,
    "lng": -92.9975,
    "transactions": 0,
    "revenue": 0,
    "avg_transaction": "N/A",
    "weight": 0
  },
  {
    "city": "Grasston",
    "region": "MN",
    "lat": 45.7947,
    "lng": -93.1489,
    "transactions": 0,
    "revenue": 0,
    "avg_transaction": "N/A",
    "weight": 0
  },
  {
    "city": "Green Isle",
    "region": "MN",
    "lat": 44.6792,
    "lng": -94.0081,
    "transactions": 0,
    "revenue": 0,
    "avg_transaction": "N/A",
    "weight": 0
  },
  {
    "city": "Hector",
    "region": "MN",
    "lat": 44.7439,
    "lng": -94.7153,
    "transactions": 0,
    "revenue": 0,
    "avg_transaction": "N/A",
    "weight": 0
  },
  {
    "city": "Hill City",
    "region": "MN",
    "lat": 46.9933,
    "lng": -93.5983,
    "transactions": 0,
    "revenue": 0,
    "avg_transaction": "N/A",
    "weight": 0
  },
  {
    "city": "Hillman",
    "region": "MN",
    "lat": 46.0042,
    "lng": -93.8936,
    "transactions": 0,
    "revenue": 0,
    "avg_transaction": "N/A",
    "weight": 0
  },
  {
    "city": "Kasota",
    "region": "MN",
    "lat": 44.2925,
    "lng": -93.9647,
    "transactions": 0,
    "revenue": 0,
    "avg_transaction": "N/A",
    "weight": 0
  },
  {
    "city": "Kellogg",
    "region": "MN",
    "lat": 44.3086,
    "lng": -91.9956,
    "transactions": 0,
    "revenue": 0,
    "avg_transaction": "N/A",
    "weight": 0
  },
  {
    "city": "Lafayette",
    "region": "MN",
    "lat": 44.4467,
    "lng": -94.395,
    "transactions": 0,
    "revenue": 0,
    "avg_transaction": "N/A",
    "weight": 0
  },
  {
    "city": "New Richland",
    "region": "MN",
    "lat": 43.8939,
    "lng": -93.4936,
    "transactions": 0,
    "revenue": 0,
    "avg_transaction": "N/A",
    "weight": 0
  },
  {
    "city": "Renville",
    "region": "MN",
    "lat": 44.7892,
    "lng": -95.2114,
    "transactions": 0,
    "revenue": 0,
    "avg_transaction": "N/A",
    "weight": 0
  },
  {
    "city": "Waskish",
    "region": "MN",
    "lat": 48.1614,
    "lng": -94.5122,
    "transactions": 0,
    "revenue": 0,
    "avg_transaction": "N/A",
    "weight": 0
  },
  {
    "city": "West Concord",
    "region": "MN",
    "lat": 44.1475,
    "lng": -92.8361,
    "transactions": 0,
    "revenue": 0,
    "avg_transaction": "N/A",
    "weight": 0
  },
  {
    "city": "Westbrook",
    "region": "MN",
    "lat": 44.0422,
    "lng": -95.4358,
    "transactions": 0,
    "revenue": 0,
    "avg_transaction": "N/A",
    "weight": 0
  },
  {
    "city": "Angle Inlet",
    "region": "MN",
    "lat": 49.3453,
    "lng": -95.0625,
    "transactions": 0,
    "revenue": 0,
    "avg_transaction": "N/A",
    "weight": 0
  },
  {
    "city": "Balaton",
    "region": "MN",
    "lat": 44.2333,
    "lng": -95.8719,
    "transactions": 0,
    "revenue": 0,
    "avg_transaction": "N/A",
    "weight": 0
  },
  {
    "city": "Boyd",
    "region": "MN",
    "lat": 44.8486,
    "lng": -95.9028,
    "transactions": 0,
    "revenue": 0,
    "avg_transaction": "N/A",
    "weight": 0
  },
  {
    "city": "Carlos",
    "region": "MN",
    "lat": 45.9725,
    "lng": -95.2919,
    "transactions": 0,
    "revenue": 0,
    "avg_transaction": "N/A",
    "weight": 0
  },
  {
    "city": "Cyrus",
    "region": "MN",
    "lat": 45.6147,
    "lng": -95.7378,
    "transactions": 0,
    "revenue": 0,
    "avg_transaction": "N/A",
    "weight": 0
  },
  {
    "city": "Deerwood",
    "region": "MN",
    "lat": 46.4736,
    "lng": -93.8986,
    "transactions": 0,
    "revenue": 0,
    "avg_transaction": "N/A",
    "weight": 0
  },
  {
    "city": "Eden Valley",
    "region": "MN",
    "lat": 45.3261,
    "lng": -94.5458,
    "transactions": 0,
    "revenue": 0,
    "avg_transaction": "N/A",
    "weight": 0
  },
  {
    "city": "Gibbon",
    "region": "MN",
    "lat": 44.5339,
    "lng": -94.5261,
    "transactions": 0,
    "revenue": 0,
    "avg_transaction": "N/A",
    "weight": 0
  },
  {
    "city": "Henderson",
    "region": "MN",
    "lat": 44.5283,
    "lng": -93.9075,
    "transactions": 0,
    "revenue": 0,
    "avg_transaction": "N/A",
    "weight": 0
  },
  {
    "city": "Heron Lake",
    "region": "MN",
    "lat": 43.795,
    "lng": -95.32,
    "transactions": 0,
    "revenue": 0,
    "avg_transaction": "N/A",
    "weight": 0
  },
  {
    "city": "Hoffman",
    "region": "MN",
    "lat": 45.8294,
    "lng": -95.7917,
    "transactions": 0,
    "revenue": 0,
    "avg_transaction": "N/A",
    "weight": 0
  },
  {
    "city": "Holdingford",
    "region": "MN",
    "lat": 45.7311,
    "lng": -94.4697,
    "transactions": 0,
    "revenue": 0,
    "avg_transaction": "N/A",
    "weight": 0
  },
  {
    "city": "Holloway",
    "region": "MN",
    "lat": 45.2486,
    "lng": -95.9078,
    "transactions": 0,
    "revenue": 0,
    "avg_transaction": "N/A",
    "weight": 0
  },
  {
    "city": "Kensington",
    "region": "MN",
    "lat": 45.7781,
    "lng": -95.6958,
    "transactions": 0,
    "revenue": 0,
    "avg_transaction": "N/A",
    "weight": 0
  },
  {
    "city": "Kilkenny",
    "region": "MN",
    "lat": 44.3133,
    "lng": -93.5739,
    "transactions": 0,
    "revenue": 0,
    "avg_transaction": "N/A",
    "weight": 0
  },
  {
    "city": "Lake Lillian",
    "region": "MN",
    "lat": 44.9436,
    "lng": -94.8797,
    "transactions": 0,
    "revenue": 0,
    "avg_transaction": "N/A",
    "weight": 0
  },
  {
    "city": "Merrifield",
    "region": "MN",
    "lat": 46.465,
    "lng": -94.1725,
    "transactions": 0,
    "revenue": 0,
    "avg_transaction": "N/A",
    "weight": 0
  },
  {
    "city": "Ogilvie",
    "region": "MN",
    "lat": 45.8322,
    "lng": -93.4261,
    "transactions": 0,
    "revenue": 0,
    "avg_transaction": "N/A",
    "weight": 0
  },
  {
    "city": "Okabena",
    "region": "MN",
    "lat": 43.7394,
    "lng": -95.3156,
    "transactions": 0,
    "revenue": 0,
    "avg_transaction": "N/A",
    "weight": 0
  },
  {
    "city": "Pierz",
    "region": "MN",
    "lat": 45.9817,
    "lng": -94.1044,
    "transactions": 0,
    "revenue": 0,
    "avg_transaction": "N/A",
    "weight": 0
  },
  {
    "city": "Prinsburg",
    "region": "MN",
    "lat": 44.9339,
    "lng": -95.1872,
    "transactions": 0,
    "revenue": 0,
    "avg_transaction": "N/A",
    "weight": 0
  },
  {
    "city": "Raymond",
    "region": "MN",
    "lat": 45.0158,
    "lng": -95.2383,
    "transactions": 0,
    "revenue": 0,
    "avg_transaction": "N/A",
    "weight": 0
  },
  {
    "city": "Redby",
    "region": "MN",
    "lat": 47.8786,
    "lng": -94.9128,
    "transactions": 0,
    "revenue": 0,
    "avg_transaction": "N/A",
    "weight": 0
  },
  {
    "city": "Saint Stephen",
    "region": "MN",
    "lat": 45.7028,
    "lng": -94.2742,
    "transactions": 0,
    "revenue": 0,
    "avg_transaction": "N/A",
    "weight": 0
  },
  {
    "city": "Walnut Grove",
    "region": "MN",
    "lat": 44.2231,
    "lng": -95.4692,
    "transactions": 0,
    "revenue": 0,
    "avg_transaction": "N/A",
    "weight": 0
  },
  {
    "city": "Blomkest",
    "region": "MN",
    "lat": 44.9428,
    "lng": -95.0231,
    "transactions": 0,
    "revenue": 0,
    "avg_transaction": "N/A",
    "weight": 0
  },
  {
    "city": "Clarissa",
    "region": "MN",
    "lat": 46.1303,
    "lng": -94.9483,
    "transactions": 0,
    "revenue": 0,
    "avg_transaction": "N/A",
    "weight": 0
  },
  {
    "city": "Elgin",
    "region": "MN",
    "lat": 44.1303,
    "lng": -92.2514,
    "transactions": 0,
    "revenue": 0,
    "avg_transaction": "N/A",
    "weight": 0
  },
  {
    "city": "Mazeppa",
    "region": "MN",
    "lat": 44.2731,
    "lng": -92.5447,
    "transactions": 0,
    "revenue": 0,
    "avg_transaction": "N/A",
    "weight": 0
  },
  {
    "city": "Morton",
    "region": "MN",
    "lat": 44.5514,
    "lng": -94.9842,
    "transactions": 0,
    "revenue": 0,
    "avg_transaction": "N/A",
    "weight": 0
  },
  {
    "city": "New Auburn",
    "region": "MN",
    "lat": 44.6736,
    "lng": -94.2294,
    "transactions": 0,
    "revenue": 0,
    "avg_transaction": "N/A",
    "weight": 0
  },
  {
    "city": "Utica",
    "region": "MN",
    "lat": 43.9756,
    "lng": -91.9547,
    "transactions": 0,
    "revenue": 0,
    "avg_transaction": "N/A",
    "weight": 0
  },
  {
    "city": "Welch",
    "region": "MN",
    "lat": 44.5683,
    "lng": -92.7383,
    "transactions": 0,
    "revenue": 0,
    "avg_transaction": "N/A",
    "weight": 0
  },
  {
    "city": "Kerkhoven",
    "region": "MN",
    "lat": 45.1931,
    "lng": -95.3203,
    "transactions": 0,
    "revenue": 0,
    "avg_transaction": "N/A",
    "weight": 0
  },
  {
    "city": "Sanborn",
    "region": "MN",
    "lat": 44.2097,
    "lng": -95.1283,
    "transactions": 0,
    "revenue": 0,
    "avg_transaction": "N/A",
    "weight": 0
  },
  {
    "city": "Salol",
    "region": "MN",
    "lat": 48.8661,
    "lng": -95.5706,
    "transactions": 0,
    "revenue": 0,
    "avg_transaction": "N/A",
    "weight": 0
  },
  {
    "city": "Clements",
    "region": "MN",
    "lat": 44.3817,
    "lng": -95.0522,
    "transactions": 0,
    "revenue": 0,
    "avg_transaction": "N/A",
    "weight": 0
  },
  {
    "city": "Bird Island",
    "region": "MN",
    "lat": 44.7675,
    "lng": -94.8953,
    "transactions": 0,
    "revenue": 0,
    "avg_transaction": "N/A",
    "weight": 0
  },
  {
    "city": "Penasse",
    "region": "MN",
    "lat": 49.3678,
    "lng": -94.9586,
    "transactions": 0,
    "revenue": 0,
    "avg_transaction": "N/A",
    "weight": 0
  },
  {
    "city": "Cushing",
    "region": "MN",
    "lat": 46.1397,
    "lng": -94.5767,
    "transactions": 0,
    "revenue": 0,
    "avg_transaction": "N/A",
    "weight": 0
  },
  {
    "city": "Wheaton",
    "region": "MN",
    "lat": 45.8044,
    "lng": -96.4989,
    "transactions": 0,
    "revenue": 0,
    "avg_transaction": "N/A",
    "weight": 0
  },
  {
    "city": "Lynd",
    "region": "MN",
    "lat": 44.3861,
    "lng": -95.89,
    "transactions": 0,
    "revenue": 0,
    "avg_transaction": "N/A",
    "weight": 0
  },
  {
    "city": "Fountain",
    "region": "MN",
    "lat": 43.74,
    "lng": -92.1361,
    "transactions": 0,
    "revenue": 0,
    "avg_transaction": "N/A",
    "weight": 0
  },
  {
    "city": "Garrison",
    "region": "MN",
    "lat": 46.2944,
    "lng": -93.8267,
    "transactions": 0,
    "revenue": 0,
    "avg_transaction": "N/A",
    "weight": 0
  },
  {
    "city": "Kelliher",
    "region": "MN",
    "lat": 47.9417,
    "lng": -94.4481,
    "transactions": 0,
    "revenue": 0,
    "avg_transaction": "N/A",
    "weight": 0
  },
  {
    "city": "Bena",
    "region": "MN",
    "lat": 47.3408,
    "lng": -94.2069,
    "transactions": 0,
    "revenue": 0,
    "avg_transaction": "N/A",
    "weight": 0
  },
  {
    "city": "Bingham Lake",
    "region": "MN",
    "lat": 43.9067,
    "lng": -95.0461,
    "transactions": 0,
    "revenue": 0,
    "avg_transaction": "N/A",
    "weight": 0
  },
  {
    "city": "Crosslake",
    "region": "MN",
    "lat": 46.6594,
    "lng": -94.1136,
    "transactions": 0,
    "revenue": 0,
    "avg_transaction": "N/A",
    "weight": 0
  },
  {
    "city": "Currie",
    "region": "MN",
    "lat": 44.0714,
    "lng": -95.6661,
    "transactions": 0,
    "revenue": 0,
    "avg_transaction": "N/A",
    "weight": 0
  },
  {
    "city": "Fort Ripley",
    "region": "MN",
    "lat": 46.1661,
    "lng": -94.36,
    "transactions": 0,
    "revenue": 0,
    "avg_transaction": "N/A",
    "weight": 0
  },
  {
    "city": "Kiester",
    "region": "MN",
    "lat": 43.5364,
    "lng": -93.7119,
    "transactions": 0,
    "revenue": 0,
    "avg_transaction": "N/A",
    "weight": 0
  },
  {
    "city": "Motley",
    "region": "MN",
    "lat": 46.3367,
    "lng": -94.6458,
    "transactions": 0,
    "revenue": 0,
    "avg_transaction": "N/A",
    "weight": 0
  },
  {
    "city": "Randall",
    "region": "MN",
    "lat": 46.0911,
    "lng": -94.5033,
    "transactions": 0,
    "revenue": 0,
    "avg_transaction": "N/A",
    "weight": 0
  },
  {
    "city": "Swanville",
    "region": "MN",
    "lat": 45.9103,
    "lng": -94.6433,
    "transactions": 0,
    "revenue": 0,
    "avg_transaction": "N/A",
    "weight": 0
  },
  {
    "city": "Tracy",
    "region": "MN",
    "lat": 44.2333,
    "lng": -95.6189,
    "transactions": 0,
    "revenue": 0,
    "avg_transaction": "N/A",
    "weight": 0
  },
  {
    "city": "Minnetonka Beach",
    "region": "MN",
    "lat": 44.9397,
    "lng": -93.5764,
    "transactions": 0,
    "revenue": 0,
    "avg_transaction": "N/A",
    "weight": 0
  },
  {
    "city": "Roosevelt",
    "region": "MN",
    "lat": 48.8036,
    "lng": -95.0967,
    "transactions": 0,
    "revenue": 0,
    "avg_transaction": "N/A",
    "weight": 0
  },
  {
    "city": "Grey Eagle",
    "region": "MN",
    "lat": 45.8253,
    "lng": -94.7464,
    "transactions": 0,
    "revenue": 0,
    "avg_transaction": "N/A",
    "weight": 0
  },
  {
    "city": "Odessa",
    "region": "MN",
    "lat": 45.2597,
    "lng": -96.3286,
    "transactions": 0,
    "revenue": 0,
    "avg_transaction": "N/A",
    "weight": 0
  },
  {
    "city": "Oak Park",
    "region": "MN",
    "lat": 45.6978,
    "lng": -93.8178,
    "transactions": 0,
    "revenue": 0,
    "avg_transaction": "N/A",
    "weight": 0
  },
  {
    "city": "Saint Louis Park",
    "region": "MN",
    "lat": 44.9483,
    "lng": -93.3478,
    "transactions": 0,
    "revenue": 0,
    "avg_transaction": "N/A",
    "weight": 0
  },
  {
    "city": "Castle Rock",
    "region": "MN",
    "lat": 44.5439,
    "lng": -93.1522,
    "transactions": 0,
    "revenue": 0,
    "avg_transaction": "N/A",
    "weight": 0
  },
  {
    "city": "Donnelly",
    "region": "MN",
    "lat": 45.6906,
    "lng": -96.0122,
    "transactions": 0,
    "revenue": 0,
    "avg_transaction": "N/A",
    "weight": 0
  },
  {
    "city": "Willernie",
    "region": "MN",
    "lat": 45.0542,
    "lng": -92.9564,
    "transactions": 0,
    "revenue": 0,
    "avg_transaction": "N/A",
    "weight": 0
  },
  {
    "city": "Kandiyohi",
    "region": "MN",
    "lat": 45.1322,
    "lng": -94.9308,
    "transactions": 0,
    "revenue": 0,
    "avg_transaction": "N/A",
    "weight": 0
  },
  {
    "city": "Farwell",
    "region": "MN",
    "lat": 45.7522,
    "lng": -95.6169,
    "transactions": 0,
    "revenue": 0,
    "avg_transaction": "N/A",
    "weight": 0
  },
  {
    "city": "Storden",
    "region": "MN",
    "lat": 44.0378,
    "lng": -95.3181,
    "transactions": 0,
    "revenue": 0,
    "avg_transaction": "N/A",
    "weight": 0
  },
  {
    "city": "Puposky",
    "region": "MN",
    "lat": 47.6778,
    "lng": -94.9069,
    "transactions": 0,
    "revenue": 0,
    "avg_transaction": "N/A",
    "weight": 0
  },
  {
    "city": "Graceville",
    "region": "MN",
    "lat": 45.5692,
    "lng": -96.4342,
    "transactions": 0,
    "revenue": 0,
    "avg_transaction": "N/A",
    "weight": 0
  },
  {
    "city": "Millville",
    "region": "MN",
    "lat": 44.2447,
    "lng": -92.2956,
    "transactions": 0,
    "revenue": 0,
    "avg_transaction": "N/A",
    "weight": 0
  },
  {
    "city": "Correll",
    "region": "MN",
    "lat": 45.2308,
    "lng": -96.1592,
    "transactions": 0,
    "revenue": 0,
    "avg_transaction": "N/A",
    "weight": 0
  },
  {
    "city": "River Falls",
    "region": "WI",
    "lat": 44.8614,
    "lng": -92.6236,
    "transactions": 0,
    "revenue": 0,
    "avg_transaction": "N/A",
    "weight": 0
  },
  {
    "city": "Wilson",
    "region": "WI",
    "lat": 44.9536,
    "lng": -92.1733,
    "transactions": 0,
    "revenue": 0,
    "avg_transaction": "N/A",
    "weight": 0
  },
  {
    "city": "Bay City",
    "region": "WI",
    "lat": 44.5856,
    "lng": -92.4503,
    "transactions": 0,
    "revenue": 0,
    "avg_transaction": "N/A",
    "weight": 0
  },
  {
    "city": "Beldenville",
    "region": "WI",
    "lat": 44.7739,
    "lng": -92.5075,
    "transactions": 0,
    "revenue": 0,
    "avg_transaction": "N/A",
    "weight": 0
  },
  {
    "city": "Deer Park",
    "region": "WI",
    "lat": 45.1881,
    "lng": -92.3853,
    "transactions": 0,
    "revenue": 0,
    "avg_transaction": "N/A",
    "weight": 0
  },
  {
    "city": "Ellsworth",
    "region": "WI",
    "lat": 44.7322,
    "lng": -92.4872,
    "transactions": 0,
    "revenue": 0,
    "avg_transaction": "N/A",
    "weight": 0
  },
  {
    "city": "Elmwood",
    "region": "WI",
    "lat": 44.7811,
    "lng": -92.1458,
    "transactions": 0,
    "revenue": 0,
    "avg_transaction": "N/A",
    "weight": 0
  },
  {
    "city": "Glenwood City",
    "region": "WI",
    "lat": 45.0586,
    "lng": -92.1722,
    "transactions": 0,
    "revenue": 0,
    "avg_transaction": "N/A",
    "weight": 0
  },
  {
    "city": "Hager City",
    "region": "WI",
    "lat": 44.6017,
    "lng": -92.5381,
    "transactions": 0,
    "revenue": 0,
    "avg_transaction": "N/A",
    "weight": 0
  },
  {
    "city": "Hammond",
    "region": "WI",
    "lat": 44.9789,
    "lng": -92.4356,
    "transactions": 0,
    "revenue": 0,
    "avg_transaction": "N/A",
    "weight": 0
  },
  {
    "city": "Houlton",
    "region": "WI",
    "lat": 45.0606,
    "lng": -92.7911,
    "transactions": 0,
    "revenue": 0,
    "avg_transaction": "N/A",
    "weight": 0
  },
  {
    "city": "Maiden Rock",
    "region": "WI",
    "lat": 44.5608,
    "lng": -92.3094,
    "transactions": 0,
    "revenue": 0,
    "avg_transaction": "N/A",
    "weight": 0
  },
  {
    "city": "Plum City",
    "region": "WI",
    "lat": 44.6292,
    "lng": -92.1922,
    "transactions": 0,
    "revenue": 0,
    "avg_transaction": "N/A",
    "weight": 0
  },
  {
    "city": "Prescott",
    "region": "WI",
    "lat": 44.7489,
    "lng": -92.8019,
    "transactions": 0,
    "revenue": 0,
    "avg_transaction": "N/A",
    "weight": 0
  },
  {
    "city": "Roberts",
    "region": "WI",
    "lat": 44.9839,
    "lng": -92.5558,
    "transactions": 0,
    "revenue": 0,
    "avg_transaction": "N/A",
    "weight": 0
  },
  {
    "city": "Spring Valley",
    "region": "WI",
    "lat": 44.8453,
    "lng": -92.2386,
    "transactions": 0,
    "revenue": 0,
    "avg_transaction": "N/A",
    "weight": 0
  },
  {
    "city": "Woodville",
    "region": "WI",
    "lat": 44.9531,
    "lng": -92.2911,
    "transactions": 0,
    "revenue": 0,
    "avg_transaction": "N/A",
    "weight": 0
  },
  {
    "city": "Webster",
    "region": "WI",
    "lat": 45.8775,
    "lng": -92.3672,
    "transactions": 0,
    "revenue": 0,
    "avg_transaction": "N/A",
    "weight": 0
  },
  {
    "city": "Almena",
    "region": "WI",
    "lat": 45.4169,
    "lng": -92.0328,
    "transactions": 0,
    "revenue": 0,
    "avg_transaction": "N/A",
    "weight": 0
  },
  {
    "city": "Amery",
    "region": "WI",
    "lat": 45.3069,
    "lng": -92.3619,
    "transactions": 0,
    "revenue": 0,
    "avg_transaction": "N/A",
    "weight": 0
  },
  {
    "city": "Arkansaw",
    "region": "WI",
    "lat": 44.6339,
    "lng": -92.0311,
    "transactions": 0,
    "revenue": 0,
    "avg_transaction": "N/A",
    "weight": 0
  },
  {
    "city": "Balsam Lake",
    "region": "WI",
    "lat": 45.4522,
    "lng": -92.4544,
    "transactions": 0,
    "revenue": 0,
    "avg_transaction": "N/A",
    "weight": 0
  },
  {
    "city": "Barron",
    "region": "WI",
    "lat": 45.4014,
    "lng": -91.8489,
    "transactions": 0,
    "revenue": 0,
    "avg_transaction": "N/A",
    "weight": 0
  },
  {
    "city": "Boyceville",
    "region": "WI",
    "lat": 45.0436,
    "lng": -92.0408,
    "transactions": 0,
    "revenue": 0,
    "avg_transaction": "N/A",
    "weight": 0
  },
  {
    "city": "Cameron",
    "region": "WI",
    "lat": 45.4086,
    "lng": -91.7439,
    "transactions": 0,
    "revenue": 0,
    "avg_transaction": "N/A",
    "weight": 0
  },
  {
    "city": "Centuria",
    "region": "WI",
    "lat": 45.4514,
    "lng": -92.5539,
    "transactions": 0,
    "revenue": 0,
    "avg_transaction": "N/A",
    "weight": 0
  },
  {
    "city": "Chetek",
    "region": "WI",
    "lat": 45.3142,
    "lng": -91.6508,
    "transactions": 0,
    "revenue": 0,
    "avg_transaction": "N/A",
    "weight": 0
  },
  {
    "city": "Colfax",
    "region": "WI",
    "lat": 44.9975,
    "lng": -91.7269,
    "transactions": 0,
    "revenue": 0,
    "avg_transaction": "N/A",
    "weight": 0
  },
  {
    "city": "Couderay",
    "region": "WI",
    "lat": 45.7956,
    "lng": -91.3067,
    "transactions": 0,
    "revenue": 0,
    "avg_transaction": "N/A",
    "weight": 0
  },
  {
    "city": "Cumberland",
    "region": "WI",
    "lat": 45.5322,
    "lng": -92.0192,
    "transactions": 0,
    "revenue": 0,
    "avg_transaction": "N/A",
    "weight": 0
  },
  {
    "city": "Dallas",
    "region": "WI",
    "lat": 45.2592,
    "lng": -91.8147,
    "transactions": 0,
    "revenue": 0,
    "avg_transaction": "N/A",
    "weight": 0
  },
  {
    "city": "Downing",
    "region": "WI",
    "lat": 45.0464,
    "lng": -92.1319,
    "transactions": 0,
    "revenue": 0,
    "avg_transaction": "N/A",
    "weight": 0
  },
  {
    "city": "Dresser",
    "region": "WI",
    "lat": 45.3561,
    "lng": -92.6333,
    "transactions": 0,
    "revenue": 0,
    "avg_transaction": "N/A",
    "weight": 0
  },
  {
    "city": "Durand",
    "region": "WI",
    "lat": 44.6264,
    "lng": -91.9656,
    "transactions": 0,
    "revenue": 0,
    "avg_transaction": "N/A",
    "weight": 0
  },
  {
    "city": "Eau Galle",
    "region": "WI",
    "lat": 44.6922,
    "lng": -92.0114,
    "transactions": 0,
    "revenue": 0,
    "avg_transaction": "N/A",
    "weight": 0
  },
  {
    "city": "Elk Mound",
    "region": "WI",
    "lat": 44.8731,
    "lng": -91.6908,
    "transactions": 0,
    "revenue": 0,
    "avg_transaction": "N/A",
    "weight": 0
  },
  {
    "city": "Exeland",
    "region": "WI",
    "lat": 45.6681,
    "lng": -91.2439,
    "transactions": 0,
    "revenue": 0,
    "avg_transaction": "N/A",
    "weight": 0
  },
  {
    "city": "Frederic",
    "region": "WI",
    "lat": 45.6592,
    "lng": -92.4669,
    "transactions": 0,
    "revenue": 0,
    "avg_transaction": "N/A",
    "weight": 0
  },
  {
    "city": "Glen Flora",
    "region": "WI",
    "lat": 45.4958,
    "lng": -90.8939,
    "transactions": 0,
    "revenue": 0,
    "avg_transaction": "N/A",
    "weight": 0
  },
  {
    "city": "Grantsburg",
    "region": "WI",
    "lat": 45.7764,
    "lng": -92.6825,
    "transactions": 0,
    "revenue": 0,
    "avg_transaction": "N/A",
    "weight": 0
  },
  {
    "city": "Knapp",
    "region": "WI",
    "lat": 44.9553,
    "lng": -92.0753,
    "transactions": 0,
    "revenue": 0,
    "avg_transaction": "N/A",
    "weight": 0
  },
  {
    "city": "Luck",
    "region": "WI",
    "lat": 45.5761,
    "lng": -92.4825,
    "transactions": 0,
    "revenue": 0,
    "avg_transaction": "N/A",
    "weight": 0
  },
  {
    "city": "Menomonie",
    "region": "WI",
    "lat": 44.8756,
    "lng": -91.9192,
    "transactions": 0,
    "revenue": 0,
    "avg_transaction": "N/A",
    "weight": 0
  },
  {
    "city": "Milltown",
    "region": "WI",
    "lat": 45.5261,
    "lng": -92.5083,
    "transactions": 0,
    "revenue": 0,
    "avg_transaction": "N/A",
    "weight": 0
  },
  {
    "city": "Osceola",
    "region": "WI",
    "lat": 45.3206,
    "lng": -92.7047,
    "transactions": 0,
    "revenue": 0,
    "avg_transaction": "N/A",
    "weight": 0
  },
  {
    "city": "Pepin",
    "region": "WI",
    "lat": 44.4411,
    "lng": -92.1478,
    "transactions": 0,
    "revenue": 0,
    "avg_transaction": "N/A",
    "weight": 0
  },
  {
    "city": "Prairie Farm",
    "region": "WI",
    "lat": 45.2372,
    "lng": -91.9814,
    "transactions": 0,
    "revenue": 0,
    "avg_transaction": "N/A",
    "weight": 0
  },
  {
    "city": "Rice Lake",
    "region": "WI",
    "lat": 45.5061,
    "lng": -91.7381,
    "transactions": 0,
    "revenue": 0,
    "avg_transaction": "N/A",
    "weight": 0
  },
  {
    "city": "Saint Croix Falls",
    "region": "WI",
    "lat": 45.41,
    "lng": -92.6394,
    "transactions": 0,
    "revenue": 0,
    "avg_transaction": "N/A",
    "weight": 0
  },
  {
    "city": "Sarona",
    "region": "WI",
    "lat": 45.7111,
    "lng": -91.8064,
    "transactions": 0,
    "revenue": 0,
    "avg_transaction": "N/A",
    "weight": 0
  },
  {
    "city": "Shell Lake",
    "region": "WI",
    "lat": 45.7394,
    "lng": -91.9253,
    "transactions": 0,
    "revenue": 0,
    "avg_transaction": "N/A",
    "weight": 0
  },
  {
    "city": "Siren",
    "region": "WI",
    "lat": 45.7858,
    "lng": -92.3808,
    "transactions": 0,
    "revenue": 0,
    "avg_transaction": "N/A",
    "weight": 0
  },
  {
    "city": "Spooner",
    "region": "WI",
    "lat": 45.8225,
    "lng": -91.8892,
    "transactions": 0,
    "revenue": 0,
    "avg_transaction": "N/A",
    "weight": 0
  },
  {
    "city": "Stone Lake",
    "region": "WI",
    "lat": 45.8456,
    "lng": -91.5403,
    "transactions": 0,
    "revenue": 0,
    "avg_transaction": "N/A",
    "weight": 0
  },
  {
    "city": "Turtle Lake",
    "region": "WI",
    "lat": 45.3944,
    "lng": -92.1422,
    "transactions": 0,
    "revenue": 0,
    "avg_transaction": "N/A",
    "weight": 0
  },
  {
    "city": "Danbury",
    "region": "WI",
    "lat": 46.0067,
    "lng": -92.3711,
    "transactions": 0,
    "revenue": 0,
    "avg_transaction": "N/A",
    "weight": 0
  },
  {
    "city": "Ridgeland",
    "region": "WI",
    "lat": 45.2036,
    "lng": -91.8953,
    "transactions": 0,
    "revenue": 0,
    "avg_transaction": "N/A",
    "weight": 0
  },
  {
    "city": "Comstock",
    "region": "WI",
    "lat": 45.4778,
    "lng": -92.075,
    "transactions": 0,
    "revenue": 0,
    "avg_transaction": "N/A",
    "weight": 0
  },
  {
    "city": "Minong",
    "region": "WI",
    "lat": 46.0994,
    "lng": -91.8247,
    "transactions": 0,
    "revenue": 0,
    "avg_transaction": "N/A",
    "weight": 0
  },
  {
    "city": "Nelson",
    "region": "WI",
    "lat": 44.4203,
    "lng": -92.0081,
    "transactions": 0,
    "revenue": 0,
    "avg_transaction": "N/A",
    "weight": 0
  },
  {
    "city": "Clayton",
    "region": "WI",
    "lat": 45.3314,
    "lng": -92.1711,
    "transactions": 0,
    "revenue": 0,
    "avg_transaction": "N/A",
    "weight": 0
  },
  {
    "city": "Barronett",
    "region": "WI",
    "lat": 45.6369,
    "lng": -91.9928,
    "transactions": 0,
    "revenue": 0,
    "avg_transaction": "N/A",
    "weight": 0
  },
  {
    "city": "Radisson",
    "region": "WI",
    "lat": 45.7689,
    "lng": -91.2211,
    "transactions": 0,
    "revenue": 0,
    "avg_transaction": "N/A",
    "weight": 0
  },
  {
    "city": "Trego",
    "region": "WI",
    "lat": 45.8997,
    "lng": -91.8208,
    "transactions": 0,
    "revenue": 0,
    "avg_transaction": "N/A",
    "weight": 0
  },
  {
    "city": "Cushing",
    "region": "WI",
    "lat": 45.5706,
    "lng": -92.6508,
    "transactions": 0,
    "revenue": 0,
    "avg_transaction": "N/A",
    "weight": 0
  },
  {
    "city": "Star Prairie",
    "region": "WI",
    "lat": 45.1969,
    "lng": -92.5306,
    "transactions": 0,
    "revenue": 0,
    "avg_transaction": "N/A",
    "weight": 0
  },
  {
    "city": "Stockholm",
    "region": "WI",
    "lat": 44.4833,
    "lng": -92.2619,
    "transactions": 0,
    "revenue": 0,
    "avg_transaction": "N/A",
    "weight": 0
  },
  {
    "city": "Ojibwa",
    "region": "WI",
    "lat": 45.7981,
    "lng": -91.1167,
    "transactions": 0,
    "revenue": 0,
    "avg_transaction": "N/A",
    "weight": 0
  },
  {
    "city": "Hertel",
    "region": "WI",
    "lat": 45.8086,
    "lng": -92.175,
    "transactions": 0,
    "revenue": 0,
    "avg_transaction": "N/A",
    "weight": 0
  }
]